X,Y,OBJECTID,LATITUDE,LONGITUDE,NAME,STATION_TYPE,STATION_ID,STATION_STATUS,LAST_REPORTED,NUM_DOCKS_AVAILABLE,NUM_DOCKS_DISABLED,NUM_BIKES_AVAILABLE,NUM_EBIKES_AVAILABLE,NUM_BIKES_DISABLED,IS_INSTALLED,IS_RETURNING,IS_RENTING,HAS_KIOSK,IOS,ANDROID,ELECTRIC_BIKE_SURCHARGE_WAIVER,EIGHTD_HAS_KEY_DISPENSER,CAPACITY,RENTAL_METHODS,REGION_ID,GIS_LAST_MOD_DTTM,GIS_ID,REGION_NAME
-77.0232422903941,38.8948587863045,13338982,38.894851,-77.02324,8th & D St NW,classic,248,active,2021/08/05 13:49:30+00,8,0,7,0,0,Yes,Yes,Yes,Yes,https://dc.lft.to/lastmile_qr_scan,https://dc.lft.to/lastmile_qr_scan,No,No,15,"KEY,CREDITCARD",42,2021/08/05 11:19:31+00,,"Washington, DC"
-77.0159722896162,38.9176297911222,13338983,38.917622,-77.01597,3rd & Elm St NW,classic,249,active,2021/08/05 14:53:11+00,13,0,2,0,0,Yes,Yes,Yes,Yes,https://dc.lft.to/lastmile_qr_scan,https://dc.lft.to/lastmile_qr_scan,No,No,15,"KEY,CREDITCARD",42,2021/08/05 11:19:31+00,,"Washington, DC"
-77.0047482860609,38.918162791453,13338984,38.918155,-77.004746,Rhode Island Ave & V St NE,classic,250,active,2021/08/05 12:05:11+00,19,0,0,0,0,Yes,Yes,Yes,Yes,https://dc.lft.to/lastmile_qr_scan,https://dc.lft.to/lastmile_qr_scan,No,No,19,"KEY,CREDITCARD",42,2021/08/05 11:19:31+00,,"Washington, DC"
-77.0139192874844,38.8922827862616,13338985,38.892275,-77.013917,Constitution Ave & 2nd St NW/DOL,classic,251,active,2021/08/05 14:29:07+00,5,0,20,1,2,Yes,Yes,Yes,Yes,https://dc.lft.to/lastmile_qr_scan,https://dc.lft.to/lastmile_qr_scan,No,No,27,"KEY,CREDITCARD",42,2021/08/05 11:19:31+00,,"Washington, DC"
-77.0137712870355,38.8869857853623,13338986,38.886978,-77.013769,Washington & Independence Ave SW/HHS,classic,252,active,2021/08/05 15:11:29+00,1,0,28,0,1,Yes,Yes,Yes,Yes,https://dc.lft.to/lastmile_qr_scan,https://dc.lft.to/lastmile_qr_scan,No,No,31,"KEY,CREDITCARD",42,2021/08/05 11:19:31+00,,"Washington, DC"
-77.0257642909132,38.8873197842693,13338987,38.887312,-77.025762,Independence Ave & L'Enfant Plaza SW/DOE,classic,253,active,2021/08/05 14:55:16+00,0,0,13,1,2,Yes,Yes,Yes,Yes,https://dc.lft.to/lastmile_qr_scan,https://dc.lft.to/lastmile_qr_scan,No,No,15,"KEY,CREDITCARD",42,2021/08/05 11:19:31+00,,"Washington, DC"
-76.9971962838899,38.9275047940807,13338988,38.927497,-76.997194,Hamlin & 7th St NE,classic,254,active,2021/08/05 14:13:14+00,15,0,0,0,0,Yes,Yes,Yes,Yes,https://dc.lft.to/lastmile_qr_scan,https://dc.lft.to/lastmile_qr_scan,No,No,15,"KEY,CREDITCARD",42,2021/08/05 11:19:31+00,,"Washington, DC"
-77.0866013085013,38.8624857773508,13338989,38.862478,-77.086599,Columbia Pike & S Walter Reed Dr,classic,255,active,2021/08/05 14:30:10+00,8,0,4,0,0,Yes,Yes,Yes,Yes,https://dc.lft.to/lastmile_qr_scan,https://dc.lft.to/lastmile_qr_scan,No,No,12,"KEY,CREDITCARD",41,2021/08/05 11:19:31+00,,"Arlington, VA"
-77.111532315547,38.8563267752033,13338990,38.856319,-77.11153,Arlington Mill Cmty Center / Columbia Pike & S Dinwiddie St,classic,256,active,2021/08/05 08:11:11+00,5,0,10,0,0,Yes,Yes,Yes,Yes,https://dc.lft.to/lastmile_qr_scan,https://dc.lft.to/lastmile_qr_scan,No,No,15,"KEY,CREDITCARD",41,2021/08/05 11:19:31+00,,"Arlington, VA"
-77.1079083159126,38.8718297786107,13338991,38.871822,-77.107906,Pershing Dr & N George Mason Dr,classic,257,active,2021/08/05 14:53:41+00,10,0,1,0,0,Yes,Yes,Yes,Yes,https://dc.lft.to/lastmile_qr_scan,https://dc.lft.to/lastmile_qr_scan,No,No,11,"KEY,CREDITCARD",41,2021/08/05 11:19:31+00,,"Arlington, VA"
-77.0230842956748,38.9854118043059,13338992,38.985404,-77.023082,Fenton St & New York Ave ,classic,258,active,2021/08/05 08:11:11+00,12,0,3,0,0,Yes,Yes,Yes,Yes,https://dc.lft.to/lastmile_qr_scan,https://dc.lft.to/lastmile_qr_scan,No,No,15,"KEY,CREDITCARD",44,2021/08/05 11:19:31+00,,"Montgomery County, MD (South)"
-77.0974283187157,38.9811108007184,13338993,38.981103,-77.097426,Bethesda Ave & Arlington Rd,classic,259,active,2021/08/05 13:37:59+00,5,0,14,0,0,Yes,Yes,Yes,Yes,https://dc.lft.to/lastmile_qr_scan,https://dc.lft.to/lastmile_qr_scan,No,No,19,"KEY,CREDITCARD",44,2021/08/05 11:19:31+00,,"Montgomery County, MD (South)"
-77.0922123174111,38.9838458018867,13338994,38.983838,-77.09221,Montgomery Ave & Waverly St ,classic,260,active,2021/08/05 13:31:51+00,7,0,4,0,0,Yes,Yes,Yes,Yes,https://dc.lft.to/lastmile_qr_scan,https://dc.lft.to/lastmile_qr_scan,No,No,11,"KEY,CREDITCARD",44,2021/08/05 11:19:31+00,,"Montgomery County, MD (South)"
-77.1926743560733,39.0963198206333,13338995,39.096312,-77.192672,Fallsgrove Blvd & Fallsgrove Dr,classic,261,active,2021/08/05 11:42:12+00,12,0,5,0,2,Yes,Yes,Yes,Yes,https://dc.lft.to/lastmile_qr_scan,https://dc.lft.to/lastmile_qr_scan,No,No,19,"KEY,CREDITCARD",43,2021/08/05 11:19:31+00,,"Montgomery County, MD (North)"
-77.2025033586868,39.0937908197856,13338996,39.093783,-77.202501,Traville Gateway Dr & Gudelsky Dr,classic,262,active,2021/08/05 08:11:12+00,15,0,3,0,1,Yes,Yes,Yes,Yes,https://dc.lft.to/lastmile_qr_scan,https://dc.lft.to/lastmile_qr_scan,No,No,19,"KEY,CREDITCARD",43,2021/08/05 11:19:31+00,,"Montgomery County, MD (North)"
-77.09654131927,38.9885698025265,13338997,38.988562,-77.096539,Norfolk Ave & Fairmont St,classic,263,active,2021/08/05 11:37:07+00,5,0,6,1,0,Yes,Yes,Yes,Yes,https://dc.lft.to/lastmile_qr_scan,https://dc.lft.to/lastmile_qr_scan,No,No,11,"KEY,CREDITCARD",44,2021/08/05 11:19:31+00,,"Montgomery County, MD (South)"
-77.1512933418352,39.0841328192818,13338998,39.084125,-77.151291,E Montgomery Ave & Maryland Ave,classic,264,active,2021/08/05 12:19:06+00,2,0,13,1,0,Yes,Yes,Yes,Yes,https://dc.lft.to/lastmile_qr_scan,https://dc.lft.to/lastmile_qr_scan,No,No,15,"KEY,CREDITCARD",43,2021/08/05 11:19:31+00,,"Montgomery County, MD (North)"
-77.0980313193571,38.9895478026163,13338999,38.98954,-77.098029,Cordell & Norfolk Ave,classic,265,active,2021/08/05 12:04:28+00,5,0,6,0,0,Yes,Yes,Yes,Yes,https://dc.lft.to/lastmile_qr_scan,https://dc.lft.to/lastmile_qr_scan,No,No,11,"KEY,CREDITCARD",44,2021/08/05 11:19:31+00,,"Montgomery County, MD (South)"
-77.1452153402236,39.0947798223777,13339000,39.094772,-77.145213,Frederick Ave & Horners Ln,classic,266,active,2021/08/05 08:11:14+00,5,0,4,0,0,Yes,Yes,Yes,Yes,https://dc.lft.to/lastmile_qr_scan,https://dc.lft.to/lastmile_qr_scan,No,No,9,"KEY,CREDITCARD",43,2021/08/05 11:19:31+00,,"Montgomery County, MD (North)"
-77.0113382918454,38.9812878040632,13339001,38.98128,-77.011336,Philadelphia & Maple Ave,classic,267,active,2021/08/05 12:32:50+00,9,0,5,0,1,Yes,Yes,Yes,Yes,https://dc.lft.to/lastmile_qr_scan,https://dc.lft.to/lastmile_qr_scan,No,No,15,"KEY,CREDITCARD",44,2021/08/05 11:19:31+00,,"Montgomery County, MD (South)"
-77.0063132900481,38.9836348051957,13339002,38.983627,-77.006311,Maple & Ritchie Ave,classic,268,active,2021/08/05 08:11:12+00,3,0,16,0,0,Yes,Yes,Yes,Yes,https://dc.lft.to/lastmile_qr_scan,https://dc.lft.to/lastmile_qr_scan,No,No,19,"KEY,CREDITCARD",44,2021/08/05 11:19:31+00,,"Montgomery County, MD (South)"
-77.0291262980271,38.9952638064576,13339003,38.995256,-77.029124,Silver Spring Metro / Colesville Rd & Wayne Ave,classic,269,active,2021/08/05 08:11:12+00,19,0,0,0,0,Yes,Yes,Yes,Yes,https://dc.lft.to/lastmile_qr_scan,https://dc.lft.to/lastmile_qr_scan,No,No,19,"KEY,CREDITCARD",44,2021/08/05 11:19:31+00,,"Montgomery County, MD (South)"
-77.095369318579,38.9835328010623,13339004,38.983525,-77.095367,Montgomery & East Ln,classic,270,active,2021/08/05 09:51:34+00,7,0,4,0,0,Yes,Yes,Yes,Yes,https://dc.lft.to/lastmile_qr_scan,https://dc.lft.to/lastmile_qr_scan,No,No,11,"KEY,CREDITCARD",44,2021/08/05 11:19:31+00,,"Montgomery County, MD (South)"
-77.0860003141936,38.9617707972384,13339005,38.961763,-77.085998,Friendship Hts Metro / Wisconsin Ave & Wisconsin Cir,classic,271,active,2021/08/05 14:55:20+00,15,0,2,0,2,Yes,Yes,Yes,Yes,https://dc.lft.to/lastmile_qr_scan,https://dc.lft.to/lastmile_qr_scan,No,No,19,"KEY,CREDITCARD",44,2021/08/05 11:19:31+00,,"Montgomery County, MD (South)"
-77.0318892946171,38.9210817910704,13339006,38.921074,-77.031887,14th & Belmont St NW,classic,272,active,2021/08/05 13:43:24+00,15,0,0,0,0,Yes,Yes,Yes,Yes,https://dc.lft.to/lastmile_qr_scan,https://dc.lft.to/lastmile_qr_scan,No,No,15,"KEY,CREDITCARD",42,2021/08/05 11:19:31+00,,"Washington, DC"
-77.0024022826835,38.8750177828355,13339007,38.87501,-77.0024,3rd & Tingey St SE,classic,273,active,2021/08/05 15:03:15+00,12,0,6,0,1,Yes,Yes,Yes,Yes,https://dc.lft.to/lastmile_qr_scan,https://dc.lft.to/lastmile_qr_scan,No,No,19,"KEY,CREDITCARD",42,2021/08/05 11:19:31+00,,"Washington, DC"
-77.0256742923899,38.920394791182,13339008,38.920387,-77.025672,10th & Florida Ave NW,classic,274,active,2021/08/05 15:08:37+00,19,0,0,0,0,Yes,Yes,Yes,Yes,https://dc.lft.to/lastmile_qr_scan,https://dc.lft.to/lastmile_qr_scan,No,No,19,"KEY,CREDITCARD",42,2021/08/05 11:19:31+00,,"Washington, DC"
-76.9944702809597,38.8767447840282,13339009,38.876737,-76.994468,Potomac Ave & 8th St SE,classic,275,active,2021/08/05 14:58:48+00,6,0,9,0,0,Yes,Yes,Yes,Yes,https://dc.lft.to/lastmile_qr_scan,https://dc.lft.to/lastmile_qr_scan,No,No,15,"KEY,CREDITCARD",42,2021/08/05 11:19:31+00,,"Washington, DC"
-77.1880163538753,39.099383820859,13339010,39.099376,-77.188014,Fallsgrove Dr & W Montgomery Ave,classic,277,active,2021/08/05 08:51:29+00,10,0,5,0,0,Yes,Yes,Yes,Yes,https://dc.lft.to/lastmile_qr_scan,https://dc.lft.to/lastmile_qr_scan,No,No,15,"KEY,CREDITCARD",43,2021/08/05 11:19:31+00,,"Montgomery County, MD (North)"
-77.1491643418602,39.0836808192077,13339011,39.083673,-77.149162,Monroe St & Monroe Pl,classic,278,active,2021/08/05 12:17:43+00,10,0,4,0,1,Yes,Yes,Yes,Yes,https://dc.lft.to/lastmile_qr_scan,https://dc.lft.to/lastmile_qr_scan,No,No,15,"KEY,CREDITCARD",43,2021/08/05 11:19:31+00,,"Montgomery County, MD (North)"
-77.1574123460477,39.1235208271808,13339012,39.123513,-77.15741,Needwood Rd & Eagles Head Ct,classic,279,active,2021/08/05 08:16:13+00,8,0,6,0,1,Yes,Yes,Yes,Yes,https://dc.lft.to/lastmile_qr_scan,https://dc.lft.to/lastmile_qr_scan,No,No,15,"KEY,CREDITCARD",43,2021/08/05 11:19:31+00,,"Montgomery County, MD (North)"
-77.0293522985174,38.9902568054366,13339013,38.990249,-77.02935,East West Hwy & Blair Mill Rd,classic,280,active,2021/08/05 12:03:57+00,8,0,7,1,0,Yes,Yes,Yes,Yes,https://dc.lft.to/lastmile_qr_scan,https://dc.lft.to/lastmile_qr_scan,No,No,15,"KEY,CREDITCARD",44,2021/08/05 11:19:31+00,,"Montgomery County, MD (South)"
-77.0919933169556,38.9824638015252,13339014,38.982456,-77.091991,47th & Elm St,classic,282,active,2021/08/05 08:16:13+00,5,0,10,0,0,Yes,Yes,Yes,Yes,https://dc.lft.to/lastmile_qr_scan,https://dc.lft.to/lastmile_qr_scan,No,No,15,"KEY,CREDITCARD",44,2021/08/05 11:19:31+00,,"Montgomery County, MD (South)"
-77.0445653052408,39.025394811472,13339015,39.025387,-77.044563,Dennis Ave & Amherst Ave,classic,283,active,2021/08/05 08:51:28+00,5,0,10,0,0,Yes,Yes,Yes,Yes,https://dc.lft.to/lastmile_qr_scan,https://dc.lft.to/lastmile_qr_scan,No,No,15,"KEY,CREDITCARD",44,2021/08/05 11:19:31+00,,"Montgomery County, MD (South)"
-77.1590503452399,39.0956688212746,13339016,39.095661,-77.159048,Montgomery College / W Campus Dr & Mannakee St,classic,284,active,2021/08/05 08:51:28+00,11,0,8,0,1,Yes,Yes,Yes,Yes,https://dc.lft.to/lastmile_qr_scan,https://dc.lft.to/lastmile_qr_scan,No,No,21,"KEY,CREDITCARD",43,2021/08/05 11:19:31+00,,"Montgomery County, MD (North)"
-77.0238562964659,38.9897318052474,13339017,38.989724,-77.023854,Fenton St & Gist Ave,classic,285,active,2021/08/05 15:10:10+00,9,0,2,1,0,Yes,Yes,Yes,Yes,https://dc.lft.to/lastmile_qr_scan,https://dc.lft.to/lastmile_qr_scan,No,No,11,"KEY,CREDITCARD",44,2021/08/05 11:19:31+00,,"Montgomery County, MD (South)"
-77.0112122921839,38.9750078027019,13339018,38.975,-77.01121,Carroll & Westmoreland Ave,classic,286,active,2021/08/05 15:12:07+00,12,0,3,0,0,Yes,Yes,Yes,Yes,https://dc.lft.to/lastmile_qr_scan,https://dc.lft.to/lastmile_qr_scan,No,No,15,"KEY,CREDITCARD",44,2021/08/05 11:19:31+00,,"Montgomery County, MD (South)"
-77.0064742908754,38.9779408034894,13339019,38.977933,-77.006472,Carroll & Ethan Allen Ave,classic,287,active,2021/08/05 15:06:49+00,11,0,4,0,0,Yes,Yes,Yes,Yes,https://dc.lft.to/lastmile_qr_scan,https://dc.lft.to/lastmile_qr_scan,No,No,15,"KEY,CREDITCARD",44,2021/08/05 11:19:31+00,,"Montgomery County, MD (South)"
-77.1001063204367,38.9923828027124,13339020,38.992375,-77.100104,Battery Ln & Trolley Trail,classic,288,active,2021/08/05 13:09:53+00,13,0,2,1,0,Yes,Yes,Yes,Yes,https://dc.lft.to/lastmile_qr_scan,https://dc.lft.to/lastmile_qr_scan,No,No,15,"KEY,CREDITCARD",44,2021/08/05 11:19:31+00,,"Montgomery County, MD (South)"
-77.100241320855,38.9906468029937,13339021,38.990639,-77.100239,Norfolk & Rugby Ave,classic,289,active,2021/08/05 12:22:00+00,6,0,5,0,0,Yes,Yes,Yes,Yes,https://dc.lft.to/lastmile_qr_scan,https://dc.lft.to/lastmile_qr_scan,No,No,11,"KEY,CREDITCARD",44,2021/08/05 11:19:31+00,,"Montgomery County, MD (South)"
-77.0945913172592,38.9771008005153,13339022,38.977093,-77.094589,Offutt Ln & Chevy Chase Dr,classic,290,active,2021/08/05 14:19:41+00,8,0,3,1,0,Yes,Yes,Yes,Yes,https://dc.lft.to/lastmile_qr_scan,https://dc.lft.to/lastmile_qr_scan,No,No,11,"KEY,CREDITCARD",44,2021/08/05 11:19:31+00,,"Montgomery County, MD (South)"
-77.1413803383657,39.0763388180297,13339023,39.076331,-77.141378,Fleet St & Ritchie Pkwy,classic,293,active,2021/08/05 08:51:29+00,9,0,5,0,1,Yes,Yes,Yes,Yes,https://dc.lft.to/lastmile_qr_scan,https://dc.lft.to/lastmile_qr_scan,No,No,15,"KEY,CREDITCARD",43,2021/08/05 11:19:31+00,,"Montgomery County, MD (North)"
-77.1770933509004,39.102219822345,13339024,39.102212,-77.177091,Piccard & W Gude Dr,classic,294,active,2021/08/05 11:51:00+00,6,0,11,0,2,Yes,Yes,Yes,Yes,https://dc.lft.to/lastmile_qr_scan,https://dc.lft.to/lastmile_qr_scan,No,No,19,"KEY,CREDITCARD",43,2021/08/05 11:19:31+00,,"Montgomery County, MD (North)"
-77.0303732989948,38.9940428058168,13339025,38.994035,-77.030371,Silver Spring Transit Center - Top Level,classic,295,active,2021/08/05 12:48:49+00,14,0,1,0,0,Yes,Yes,Yes,Yes,https://dc.lft.to/lastmile_qr_scan,https://dc.lft.to/lastmile_qr_scan,No,No,15,"KEY,CREDITCARD",44,2021/08/05 11:19:31+00,,"Montgomery County, MD (South)"
-77.0315572992821,38.9993958068186,13339026,38.999388,-77.031555,Georgia Ave & Spring St,classic,296,active,2021/08/05 12:54:28+00,4,0,6,0,0,Yes,Yes,Yes,Yes,https://dc.lft.to/lastmile_qr_scan,https://dc.lft.to/lastmile_qr_scan,No,No,11,"KEY,CREDITCARD",44,2021/08/05 11:19:31+00,,"Montgomery County, MD (South)"
-77.0256102979639,38.9970408069041,13339027,38.997033,-77.025608,Fenton St & Ellsworth Dr ,classic,297,active,2021/08/05 12:06:12+00,15,0,0,0,0,Yes,Yes,Yes,Yes,https://dc.lft.to/lastmile_qr_scan,https://dc.lft.to/lastmile_qr_scan,No,No,15,"KEY,CREDITCARD",44,2021/08/05 11:19:31+00,,"Montgomery County, MD (South)"
-77.1714893506692,39.1146958251327,13339028,39.114688,-77.171487,King Farm Blvd & Pleasant Dr,classic,298,active,2021/08/05 08:51:29+00,13,0,4,0,1,Yes,Yes,Yes,Yes,https://dc.lft.to/lastmile_qr_scan,https://dc.lft.to/lastmile_qr_scan,No,No,18,"KEY,CREDITCARD",43,2021/08/05 11:19:31+00,,"Montgomery County, MD (North)"
-77.1826713535147,39.1103218235396,13339029,39.110314,-77.182669,King Farm Blvd & Piccard Dr,classic,299,active,2021/08/05 08:51:32+00,12,0,3,1,0,Yes,Yes,Yes,Yes,https://dc.lft.to/lastmile_qr_scan,https://dc.lft.to/lastmile_qr_scan,No,No,15,"KEY,CREDITCARD",43,2021/08/05 11:19:31+00,,"Montgomery County, MD (North)"
-77.0500483011134,38.9235907911436,13339030,38.923583,-77.050046,Calvert St & Woodley Pl NW,classic,301,active,2021/08/05 15:05:57+00,19,0,0,0,0,Yes,Yes,Yes,Yes,https://dc.lft.to/lastmile_qr_scan,https://dc.lft.to/lastmile_qr_scan,No,No,19,"KEY,CREDITCARD",42,2021/08/05 11:19:31+00,,"Washington, DC"
-77.0153622888814,38.9073407892391,13339031,38.907333,-77.01536,New Jersey Ave & N St NW/Dunbar HS,classic,302,active,2021/08/05 15:13:29+00,13,0,4,0,1,Yes,Yes,Yes,Yes,https://dc.lft.to/lastmile_qr_scan,https://dc.lft.to/lastmile_qr_scan,No,No,19,"KEY,CREDITCARD",42,2021/08/05 11:19:31+00,,"Washington, DC"
-76.9318642623142,38.8985437900346,13339032,38.898536,-76.931862,Nannie Helen Burroughs Ave & 49th St NE,classic,303,active,2021/08/05 13:29:30+00,2,0,3,1,6,Yes,Yes,Yes,Yes,https://dc.lft.to/lastmile_qr_scan,https://dc.lft.to/lastmile_qr_scan,No,No,11,"KEY,CREDITCARD",42,2021/08/05 11:19:31+00,,"Washington, DC"
-76.9331012629167,38.9084807920939,13339033,38.908473,-76.933099,Deanwood Rec Center,classic,304,active,2021/08/05 13:21:11+00,7,0,7,0,1,Yes,Yes,Yes,Yes,https://dc.lft.to/lastmile_qr_scan,https://dc.lft.to/lastmile_qr_scan,No,No,15,"KEY,CREDITCARD",42,2021/08/05 11:19:31+00,,"Washington, DC"
-77.0302322918005,38.8784407828617,13339034,38.878433,-77.03023,Hains Point/Buckeye & Ohio Dr SW,classic,305,active,2021/08/05 15:16:49+00,6,0,9,1,2,Yes,Yes,Yes,Yes,https://dc.lft.to/lastmile_qr_scan,https://dc.lft.to/lastmile_qr_scan,No,No,17,"KEY,CREDITCARD",42,2021/08/05 11:19:31+00,,"Washington, DC"
-77.0892353091793,38.8737627794969,13339035,38.873755,-77.089233,Arlington Blvd & Fillmore St,classic,306,active,2021/08/05 13:47:12+00,10,0,1,0,0,Yes,Yes,Yes,Yes,https://dc.lft.to/lastmile_qr_scan,https://dc.lft.to/lastmile_qr_scan,No,No,11,"KEY,CREDITCARD",41,2021/08/05 11:19:31+00,,"Arlington, VA"
-77.054282298317,38.8627607789497,13339036,38.862753,-77.05428,Eads St & 12th St S,classic,307,active,2021/08/05 13:36:47+00,5,0,12,0,0,Yes,Yes,Yes,Yes,https://dc.lft.to/lastmile_qr_scan,https://dc.lft.to/lastmile_qr_scan,No,No,17,"KEY,CREDITCARD",41,2021/08/05 11:19:31+00,,"Arlington, VA"
-77.1096493237185,38.999641804123,13339037,38.999634,-77.109647,Old Georgetown Rd & Southwick St,classic,308,active,2021/08/05 14:35:41+00,12,0,7,0,0,Yes,Yes,Yes,Yes,https://dc.lft.to/lastmile_qr_scan,https://dc.lft.to/lastmile_qr_scan,No,No,19,"KEY,CREDITCARD",44,2021/08/05 11:19:31+00,,"Montgomery County, MD (South)"
-77.0886613143788,38.9611577974539,13339038,38.96115,-77.088659,Friendship Blvd & Willard Ave,classic,309,active,2021/08/05 15:08:10+00,18,0,1,0,0,Yes,Yes,Yes,Yes,https://dc.lft.to/lastmile_qr_scan,https://dc.lft.to/lastmile_qr_scan,No,No,19,"KEY,CREDITCARD",44,2021/08/05 11:19:31+00,,"Montgomery County, MD (South)"
-77.0089132863458,38.8997107875051,13339039,38.899703,-77.008911,North Capitol St & G Pl NE,classic,310,active,2021/08/05 13:37:37+00,3,0,16,0,0,Yes,Yes,Yes,Yes,https://dc.lft.to/lastmile_qr_scan,https://dc.lft.to/lastmile_qr_scan,No,No,19,"KEY,CREDITCARD",42,2021/08/05 11:19:31+00,,"Washington, DC"
-77.0934803087887,38.8378537722552,13339040,38.837846,-77.093478,31st St & S Woodrow St,classic,311,active,2021/08/05 08:51:30+00,4,0,6,1,1,Yes,Yes,Yes,Yes,https://dc.lft.to/lastmile_qr_scan,https://dc.lft.to/lastmile_qr_scan,No,No,11,"KEY,CREDITCARD",41,2021/08/05 11:19:31+00,,"Arlington, VA"
-77.0821063074072,38.8732267799819,13339041,38.873219,-77.082104,Washington Blvd & Walter Reed Dr ,classic,312,active,2021/08/05 14:18:45+00,10,0,5,0,0,Yes,Yes,Yes,Yes,https://dc.lft.to/lastmile_qr_scan,https://dc.lft.to/lastmile_qr_scan,No,No,15,"KEY,CREDITCARD",41,2021/08/05 11:19:31+00,,"Arlington, VA"
-77.0955983114202,38.8694257787968,13339042,38.869418,-77.095596,TJ Cmty Ctr / 2nd St & S Old Glebe Rd,classic,313,active,2021/08/05 08:51:31+00,13,0,2,0,0,Yes,Yes,Yes,Yes,https://dc.lft.to/lastmile_qr_scan,https://dc.lft.to/lastmile_qr_scan,No,No,15,"KEY,CREDITCARD",41,2021/08/05 11:19:31+00,,"Arlington, VA"
-77.0619793048357,38.9411467943489,13339043,38.941139,-77.061977,Connecticut Ave & Tilden St NW,classic,314,active,2021/08/05 14:46:05+00,5,0,10,0,0,Yes,Yes,Yes,Yes,https://dc.lft.to/lastmile_qr_scan,https://dc.lft.to/lastmile_qr_scan,No,No,15,"KEY,CREDITCARD",42,2021/08/05 11:19:31+00,,"Washington, DC"
-77.1964443572319,39.103098821507,13339044,39.103091,-77.196442,Medical Center Dr & Key West Ave,classic,315,active,2021/08/05 08:57:00+00,14,0,1,0,0,Yes,Yes,Yes,Yes,https://dc.lft.to/lastmile_qr_scan,https://dc.lft.to/lastmile_qr_scan,No,No,15,"KEY,CREDITCARD",43,2021/08/05 11:19:31+00,,"Montgomery County, MD (North)"
-77.1966383573135,39.097643820713,13339045,39.097636,-77.196636,Shady Grove Hospital,classic,316,active,2021/08/05 08:56:59+00,12,0,7,0,0,Yes,Yes,Yes,Yes,https://dc.lft.to/lastmile_qr_scan,https://dc.lft.to/lastmile_qr_scan,No,No,19,"KEY,CREDITCARD",43,2021/08/05 11:19:31+00,,"Montgomery County, MD (North)"
-77.0238962963837,38.9974528069879,13339046,38.997445,-77.023894,Veterans Pl & Pershing Dr ,classic,317,active,2021/08/05 14:03:39+00,10,0,0,0,1,Yes,Yes,Yes,Yes,https://dc.lft.to/lastmile_qr_scan,https://dc.lft.to/lastmile_qr_scan,No,No,11,"KEY,CREDITCARD",44,2021/08/05 11:19:31+00,,"Montgomery County, MD (South)"
-77.1458053404842,39.0854018202287,13339047,39.085394,-77.145803,Rockville Metro East,classic,318,active,2021/08/05 08:57:01+00,10,0,3,2,0,Yes,Yes,Yes,Yes,https://dc.lft.to/lastmile_qr_scan,https://dc.lft.to/lastmile_qr_scan,No,No,13,"KEY,CREDITCARD",43,2021/08/05 11:19:31+00,,"Montgomery County, MD (North)"
-77.0121102868696,38.9003657877293,13339048,38.900358,-77.012108,1st & H St NW,classic,319,active,2021/08/05 14:55:46+00,4,0,10,0,0,Yes,Yes,Yes,Yes,https://dc.lft.to/lastmile_qr_scan,https://dc.lft.to/lastmile_qr_scan,No,No,15,"KEY,CREDITCARD",42,2021/08/05 11:19:31+00,,"Washington, DC"
-77.0027232878401,38.9523767989949,13339049,38.952369,-77.002721,Fort Totten Metro,classic,320,active,2021/08/05 15:10:57+00,13,0,6,1,0,Yes,Yes,Yes,Yes,https://dc.lft.to/lastmile_qr_scan,https://dc.lft.to/lastmile_qr_scan,No,No,19,"KEY,CREDITCARD",42,2021/08/05 11:19:31+00,,"Washington, DC"
-77.0168572929329,38.9752268025906,13339050,38.975219,-77.016855,Takoma Metro,classic,321,active,2021/08/05 14:21:12+00,7,0,10,0,1,Yes,Yes,Yes,Yes,https://dc.lft.to/lastmile_qr_scan,https://dc.lft.to/lastmile_qr_scan,No,No,19,"KEY,CREDITCARD",42,2021/08/05 11:19:31+00,,"Washington, DC"
-76.9958782832959,38.920689792949,13339051,38.920682,-76.995876,Rhode Island Ave Metro,classic,322,active,2021/08/05 15:04:18+00,15,0,3,0,0,Yes,Yes,Yes,Yes,https://dc.lft.to/lastmile_qr_scan,https://dc.lft.to/lastmile_qr_scan,No,No,19,"KEY,CREDITCARD",42,2021/08/05 11:19:31+00,,"Washington, DC"
-77.076133305416,38.8664787788533,13339052,38.866471,-77.076131,Rolfe St & 9th St S,classic,323,active,2021/08/05 12:03:33+00,7,0,3,1,1,Yes,Yes,Yes,Yes,https://dc.lft.to/lastmile_qr_scan,https://dc.lft.to/lastmile_qr_scan,No,No,11,"KEY,CREDITCARD",41,2021/08/05 11:19:31+00,,"Arlington, VA"
-77.0870853075023,38.839919772938,13339053,38.839912,-77.087083,Shirlington Transit Center / Quincy St & Randolph St,classic,324,active,2021/08/05 11:30:31+00,6,0,9,0,0,Yes,Yes,Yes,Yes,https://dc.lft.to/lastmile_qr_scan,https://dc.lft.to/lastmile_qr_scan,No,No,15,"KEY,CREDITCARD",41,2021/08/05 11:19:31+00,,"Arlington, VA"
-77.1660953488085,39.119772826132,13339054,39.119765,-77.166093,Shady Grove Metro West,classic,325,active,2021/08/05 08:57:03+00,12,0,6,0,1,Yes,Yes,Yes,Yes,https://dc.lft.to/lastmile_qr_scan,https://dc.lft.to/lastmile_qr_scan,No,No,19,"KEY,CREDITCARD",43,2021/08/05 11:19:31+00,,"Montgomery County, MD (North)"
-77.1033833197398,38.9649997978461,13339055,38.964992,-77.103381,River Rd & Landy Ln,classic,326,active,2021/08/05 14:27:34+00,9,0,10,0,0,Yes,Yes,Yes,Yes,https://dc.lft.to/lastmile_qr_scan,https://dc.lft.to/lastmile_qr_scan,No,No,19,"KEY,CREDITCARD",44,2021/08/05 11:19:31+00,,"Montgomery County, MD (South)"
-77.1468683403128,39.0843868198369,13339056,39.084379,-77.146866,Rockville Metro West,classic,327,active,2021/08/05 08:57:03+00,19,0,0,0,0,Yes,Yes,Yes,Yes,https://dc.lft.to/lastmile_qr_scan,https://dc.lft.to/lastmile_qr_scan,No,No,19,"KEY,CREDITCARD",43,2021/08/05 11:19:31+00,,"Montgomery County, MD (North)"
-77.0945393185147,38.9846988016201,13339057,38.984691,-77.094537,Bethesda Metro / Wisconsin Ave & Old Georgetown Rd,classic,328,active,2021/08/05 12:01:30+00,8,0,4,0,0,Yes,Yes,Yes,Yes,https://dc.lft.to/lastmile_qr_scan,https://dc.lft.to/lastmile_qr_scan,No,No,12,"KEY,CREDITCARD",44,2021/08/05 11:19:31+00,,"Montgomery County, MD (South)"
-77.0713033047245,38.8899277834803,13339058,38.88992,-77.071301,Iwo Jima Memorial / Meade & 14th St N,classic,329,active,2021/08/05 13:37:52+00,14,0,5,0,0,Yes,Yes,Yes,Yes,https://dc.lft.to/lastmile_qr_scan,https://dc.lft.to/lastmile_qr_scan,No,No,19,"KEY,CREDITCARD",41,2021/08/05 11:19:31+00,,"Arlington, VA"
-77.0675313042281,38.9037397864269,13339059,38.903732,-77.067529,34th & Water St NW,classic,330,active,2021/08/05 14:38:25+00,0,0,15,0,2,Yes,Yes,Yes,Yes,https://dc.lft.to/lastmile_qr_scan,https://dc.lft.to/lastmile_qr_scan,No,No,19,"KEY,CREDITCARD",42,2021/08/05 11:19:31+00,,"Washington, DC"
-77.06086829696,38.8043857663611,13339060,38.804378,-77.060866,Duke St & John Carlyle St,classic,331,active,2021/08/05 11:08:38+00,13,0,2,0,0,Yes,Yes,Yes,Yes,https://dc.lft.to/lastmile_qr_scan,https://dc.lft.to/lastmile_qr_scan,No,No,15,"KEY,CREDITCARD",40,2021/08/05 11:19:31+00,,"Alexandria, VA"
-77.0916923120275,38.894948783455,13339061,38.894941,-77.09169,Langston Blvd & N Cleveland St,classic,332,active,2021/08/05 08:57:00+00,15,0,0,0,0,Yes,Yes,Yes,Yes,https://dc.lft.to/lastmile_qr_scan,https://dc.lft.to/lastmile_qr_scan,No,No,15,"KEY,CREDITCARD",41,2021/08/05 11:19:31+00,,"Arlington, VA"
-77.1045053139358,38.8694497783224,13339062,38.869442,-77.104503,Arlington Blvd & S George Mason Dr,classic,333,active,2021/08/05 14:43:25+00,14,0,1,0,0,Yes,Yes,Yes,Yes,https://dc.lft.to/lastmile_qr_scan,https://dc.lft.to/lastmile_qr_scan,No,No,15,"KEY,CREDITCARD",41,2021/08/05 11:19:31+00,,"Arlington, VA"
-77.0262372914661,38.8982507864451,13339063,38.898243,-77.026235,10th & G St NW,classic,334,active,2021/08/05 14:43:07+00,17,0,5,1,1,Yes,Yes,Yes,Yes,https://dc.lft.to/lastmile_qr_scan,https://dc.lft.to/lastmile_qr_scan,No,No,23,"KEY,CREDITCARD",42,2021/08/05 11:19:31+00,,"Washington, DC"
-77.080853308935,38.8976197843983,13339064,38.897612,-77.080851,Langston Blvd & N Scott St,classic,335,active,2021/08/05 14:36:59+00,7,0,8,0,0,Yes,Yes,Yes,Yes,https://dc.lft.to/lastmile_qr_scan,https://dc.lft.to/lastmile_qr_scan,No,No,15,"KEY,CREDITCARD",41,2021/08/05 11:19:31+00,,"Arlington, VA"
-77.0510862991414,38.9017627867751,13339065,38.901755,-77.051084,New Hampshire Ave & 24th St NW,classic,336,active,2021/08/05 14:59:52+00,13,0,5,0,1,Yes,Yes,Yes,Yes,https://dc.lft.to/lastmile_qr_scan,https://dc.lft.to/lastmile_qr_scan,No,No,19,"KEY,CREDITCARD",42,2021/08/05 11:19:31+00,,"Washington, DC"
-77.0689542987277,38.801118765369,13339066,38.801111,-77.068952,Eisenhower Ave & Mill Race Ln,classic,337,active,2021/08/05 11:13:04+00,10,0,5,2,0,Yes,Yes,Yes,Yes,https://dc.lft.to/lastmile_qr_scan,https://dc.lft.to/lastmile_qr_scan,No,No,15,"KEY,CREDITCARD",40,2021/08/05 11:19:31+00,,"Alexandria, VA"
-77.0474962936408,38.8217577708753,13339067,38.82175,-77.047494,Potomac Greens Dr & Slaters Ln,classic,338,active,2021/08/05 12:33:35+00,2,0,9,0,0,Yes,Yes,Yes,Yes,https://dc.lft.to/lastmile_qr_scan,https://dc.lft.to/lastmile_qr_scan,No,No,11,"KEY,CREDITCARD",40,2021/08/05 11:19:31+00,,"Alexandria, VA"
-77.0635642970188,38.8026847659359,13339068,38.802677,-77.063562,Ballenger Ave & Dulaney St,classic,339,active,2021/08/05 14:19:09+00,13,0,6,0,0,Yes,Yes,Yes,Yes,https://dc.lft.to/lastmile_qr_scan,https://dc.lft.to/lastmile_qr_scan,No,No,19,"KEY,CREDITCARD",40,2021/08/05 11:19:31+00,,"Alexandria, VA"
-77.0576212963335,38.8200717702207,13339069,38.820064,-77.057619,Mount Vernon Ave & E Nelson Ave,classic,340,active,2021/08/05 12:28:46+00,11,0,0,0,0,Yes,Yes,Yes,Yes,https://dc.lft.to/lastmile_qr_scan,https://dc.lft.to/lastmile_qr_scan,No,No,11,"KEY,CREDITCARD",40,2021/08/05 11:19:31+00,,"Alexandria, VA"
-77.0585432975678,38.8259577707542,13339070,38.82595,-77.058541,Mount Vernon Ave & E Del Ray Ave,classic,341,active,2021/08/05 13:52:29+00,9,0,6,0,0,Yes,Yes,Yes,Yes,https://dc.lft.to/lastmile_qr_scan,https://dc.lft.to/lastmile_qr_scan,No,No,15,"KEY,CREDITCARD",40,2021/08/05 11:19:31+00,,"Alexandria, VA"
-77.0530982951753,38.8209397698561,13339071,38.820932,-77.053096,Monroe Ave & Leslie Ave,classic,342,active,2021/08/05 11:03:57+00,8,0,7,0,0,Yes,Yes,Yes,Yes,https://dc.lft.to/lastmile_qr_scan,https://dc.lft.to/lastmile_qr_scan,No,No,15,"KEY,CREDITCARD",40,2021/08/05 11:19:31+00,,"Alexandria, VA"
-77.0598232978558,38.8330847728055,13339072,38.833077,-77.059821,Mount Vernon Ave & Kennedy St,classic,343,active,2021/08/05 15:12:51+00,14,0,0,0,1,Yes,Yes,Yes,Yes,https://dc.lft.to/lastmile_qr_scan,https://dc.lft.to/lastmile_qr_scan,No,No,15,"KEY,CREDITCARD",40,2021/08/05 11:19:31+00,,"Alexandria, VA"
-77.0848033094167,38.8906197835215,13339073,38.890612,-77.084801,Court House Metro / 15th St & N Uhle St,classic,344,active,2021/08/05 14:08:09+00,15,0,6,1,0,Yes,Yes,Yes,Yes,https://dc.lft.to/lastmile_qr_scan,https://dc.lft.to/lastmile_qr_scan,No,No,21,"KEY,CREDITCARD",41,2021/08/05 11:19:31+00,,"Arlington, VA"
-77.0000372883543,38.986750805719,13339074,38.986743,-77.000035,WAU / Flower Ave & Division St,classic,345,active,2021/08/05 13:08:51+00,5,0,10,1,0,Yes,Yes,Yes,Yes,https://dc.lft.to/lastmile_qr_scan,https://dc.lft.to/lastmile_qr_scan,No,No,15,"KEY,CREDITCARD",44,2021/08/05 11:19:31+00,,"Montgomery County, MD (South)"
-77.0500322971842,38.8655607794074,13339075,38.865553,-77.05003,Long Bridge Park / Long Bridge Dr & 6th St S,classic,346,active,2021/08/05 13:25:02+00,12,0,3,0,0,Yes,Yes,Yes,Yes,https://dc.lft.to/lastmile_qr_scan,https://dc.lft.to/lastmile_qr_scan,No,No,15,"KEY,CREDITCARD",41,2021/08/05 11:19:31+00,,"Arlington, VA"
-77.0751373105038,38.9645517985332,13339076,38.964544,-77.075135,Connecticut Ave & McKinley St NW,classic,347,active,2021/08/05 15:07:34+00,12,0,6,0,0,Yes,Yes,Yes,Yes,https://dc.lft.to/lastmile_qr_scan,https://dc.lft.to/lastmile_qr_scan,No,No,19,"KEY,CREDITCARD",42,2021/08/05 11:19:31+00,,"Washington, DC"
-77.034920295151,38.903656787418,13339077,38.903649,-77.034918,15th & L St NW,classic,348,active,2021/08/05 15:14:43+00,16,0,6,0,1,Yes,Yes,Yes,Yes,https://dc.lft.to/lastmile_qr_scan,https://dc.lft.to/lastmile_qr_scan,No,No,23,"KEY,CREDITCARD",42,2021/08/05 11:19:31+00,,"Washington, DC"
-77.0397342960301,38.8982907864439,13339078,38.898283,-77.039732,17th & G St NW,classic,349,active,2021/08/05 14:59:01+00,13,0,17,2,0,Yes,Yes,Yes,Yes,https://dc.lft.to/lastmile_qr_scan,https://dc.lft.to/lastmile_qr_scan,No,No,31,"KEY,CREDITCARD",42,2021/08/05 11:19:31+00,,"Washington, DC"
-77.0345013000797,38.9976608064959,13339079,38.997653,-77.034499,Spring St & 2nd Ave,classic,350,active,2021/08/05 08:57:04+00,8,0,7,0,0,Yes,Yes,Yes,Yes,https://dc.lft.to/lastmile_qr_scan,https://dc.lft.to/lastmile_qr_scan,No,No,15,"KEY,CREDITCARD",44,2021/08/05 11:19:31+00,,"Montgomery County, MD (South)"
-77.0418362973781,38.9126557891339,13339080,38.912648,-77.041834,18th & R St NW,classic,351,active,2021/08/05 14:17:22+00,18,0,0,0,1,Yes,Yes,Yes,Yes,https://dc.lft.to/lastmile_qr_scan,https://dc.lft.to/lastmile_qr_scan,No,No,19,"KEY,CREDITCARD",42,2021/08/05 11:19:31+00,,"Washington, DC"
-77.0632773005423,38.8592617777863,13339081,38.859254,-77.063275,Joyce St & 16th St S,classic,352,active,2021/08/05 14:26:51+00,13,0,1,0,1,Yes,Yes,Yes,Yes,https://dc.lft.to/lastmile_qr_scan,https://dc.lft.to/lastmile_qr_scan,No,No,15,"KEY,CREDITCARD",41,2021/08/05 11:19:31+00,,"Arlington, VA"
-76.9970722836614,38.9079157900859,13339082,38.907908,-76.99707,Union Market,classic,353,active,2021/08/05 14:54:50+00,13,0,8,1,1,Yes,Yes,Yes,Yes,https://dc.lft.to/lastmile_qr_scan,https://dc.lft.to/lastmile_qr_scan,No,No,23,"KEY,CREDITCARD",42,2021/08/05 11:19:31+00,,"Washington, DC"
-77.1045643157055,38.896463783393,13339083,38.896456,-77.104562,Langston Blvd & N Monroe St,classic,354,active,2021/08/05 12:46:42+00,12,0,3,1,0,Yes,Yes,Yes,Yes,https://dc.lft.to/lastmile_qr_scan,https://dc.lft.to/lastmile_qr_scan,No,No,15,"KEY,CREDITCARD",41,2021/08/05 11:19:31+00,,"Arlington, VA"
-77.0783193081114,38.8989917851047,13339084,38.898984,-77.078317,21st St & N Pierce St,classic,355,active,2021/08/05 13:22:14+00,5,0,9,0,1,Yes,Yes,Yes,Yes,https://dc.lft.to/lastmile_qr_scan,https://dc.lft.to/lastmile_qr_scan,No,No,15,"KEY,CREDITCARD",41,2021/08/05 11:19:31+00,,"Arlington, VA"
-77.0971323132754,38.8953847834976,13339085,38.895377,-77.09713,Langston Blvd & N Kirkwood St,classic,356,active,2021/08/05 08:57:06+00,7,0,7,2,0,Yes,Yes,Yes,Yes,https://dc.lft.to/lastmile_qr_scan,https://dc.lft.to/lastmile_qr_scan,No,No,15,"KEY,CREDITCARD",41,2021/08/05 11:19:31+00,,"Arlington, VA"
-77.0431842967445,38.8984197860007,13339086,38.898412,-77.043182,19th & G St NW,classic,357,active,2021/08/05 14:24:55+00,21,0,2,0,0,Yes,Yes,Yes,Yes,https://dc.lft.to/lastmile_qr_scan,https://dc.lft.to/lastmile_qr_scan,No,No,23,"KEY,CREDITCARD",42,2021/08/05 11:19:31+00,,"Washington, DC"
-77.0035622855347,38.9147587907588,13339087,38.914751,-77.00356,2nd St & Seaton Pl NE,classic,358,active,2021/08/05 15:03:16+00,16,0,2,0,1,Yes,Yes,Yes,Yes,https://dc.lft.to/lastmile_qr_scan,https://dc.lft.to/lastmile_qr_scan,No,No,19,"KEY,CREDITCARD",42,2021/08/05 11:19:31+00,,"Washington, DC"
-77.1271223216406,38.8765357789328,13339088,38.876528,-77.12712,Wilson Blvd & N Illinois St ,classic,359,active,2021/08/05 12:01:30+00,1,0,14,0,0,Yes,Yes,Yes,Yes,https://dc.lft.to/lastmile_qr_scan,https://dc.lft.to/lastmile_qr_scan,No,No,15,"KEY,CREDITCARD",41,2021/08/05 11:19:31+00,,"Arlington, VA"
-77.0681233025134,38.8621577778891,13339089,38.86215,-77.068121,Army Navy Dr & S Nash St,classic,364,active,2021/08/05 08:57:01+00,8,0,3,0,0,Yes,Yes,Yes,Yes,https://dc.lft.to/lastmile_qr_scan,https://dc.lft.to/lastmile_qr_scan,No,No,11,"KEY,CREDITCARD",41,2021/08/05 11:19:31+00,,"Arlington, VA"
-77.0601753023068,38.9028337863549,13339090,38.902826,-77.060173,Thomas Jefferson St NW & Water/K St NW,classic,365,active,2021/08/05 15:13:45+00,7,0,10,0,1,Yes,Yes,Yes,Yes,https://dc.lft.to/lastmile_qr_scan,https://dc.lft.to/lastmile_qr_scan,No,No,19,"KEY,CREDITCARD",42,2021/08/05 11:19:31+00,,"Washington, DC"
-77.0270272929681,38.9137687897842,13339091,38.913761,-77.027025,11th & S St NW,classic,367,active,2021/08/05 15:12:46+00,17,0,5,0,1,Yes,Yes,Yes,Yes,https://dc.lft.to/lastmile_qr_scan,https://dc.lft.to/lastmile_qr_scan,No,No,23,"KEY,CREDITCARD",42,2021/08/05 11:19:31+00,,"Washington, DC"
-77.0878723086052,38.8661277779388,13339092,38.86612,-77.08787,Walter Reed Dr & 8th St S,classic,368,active,2021/08/05 11:52:31+00,10,0,5,0,0,Yes,Yes,Yes,Yes,https://dc.lft.to/lastmile_qr_scan,https://dc.lft.to/lastmile_qr_scan,No,No,15,"KEY,CREDITCARD",41,2021/08/05 11:19:31+00,,"Arlington, VA"
-77.0036682849004,38.8996777877445,13339093,38.89967,-77.003666,2nd & G St NE,classic,369,active,2021/08/05 15:14:30+00,8,0,14,0,1,Yes,Yes,Yes,Yes,https://dc.lft.to/lastmile_qr_scan,https://dc.lft.to/lastmile_qr_scan,No,No,23,"KEY,CREDITCARD",42,2021/08/05 11:19:31+00,,"Washington, DC"
-77.0227722905871,38.9086477891708,13339094,38.90864,-77.02277,8th & O St NW,classic,370,active,2021/08/05 14:47:01+00,18,0,1,0,0,Yes,Yes,Yes,Yes,https://dc.lft.to/lastmile_qr_scan,https://dc.lft.to/lastmile_qr_scan,No,No,19,"KEY,CREDITCARD",42,2021/08/05 11:19:31+00,,"Washington, DC"
-77.0278572956753,38.961346799511,13339095,38.961339,-77.027855,Georgia & Missouri Ave NW,classic,371,active,2021/08/05 12:24:12+00,11,0,8,5,0,Yes,Yes,Yes,Yes,https://dc.lft.to/lastmile_qr_scan,https://dc.lft.to/lastmile_qr_scan,No,No,19,"KEY,CREDITCARD",42,2021/08/05 11:19:31+00,,"Washington, DC"
-76.974830275165,38.8944817883882,13339096,38.894474,-76.974828,Oklahoma Ave & D St NE,classic,373,active,2021/08/05 15:16:08+00,9,0,10,1,0,Yes,Yes,Yes,Yes,https://dc.lft.to/lastmile_qr_scan,https://dc.lft.to/lastmile_qr_scan,No,No,19,"KEY,CREDITCARD",42,2021/08/05 11:19:31+00,,"Washington, DC"
-76.992788281593,38.8962337876823,13339097,38.896226,-76.992786,Maryland Ave & E St NE,classic,374,active,2021/08/05 15:07:57+00,12,0,5,0,2,Yes,Yes,Yes,Yes,https://dc.lft.to/lastmile_qr_scan,https://dc.lft.to/lastmile_qr_scan,No,No,19,"KEY,CREDITCARD",42,2021/08/05 11:19:31+00,,"Washington, DC"
-76.9836852796733,38.915611792162,13339098,38.915604,-76.983683,New York Ave & Hecht Ave NE,classic,375,active,2021/08/05 14:52:41+00,6,0,13,0,4,Yes,Yes,Yes,Yes,https://dc.lft.to/lastmile_qr_scan,https://dc.lft.to/lastmile_qr_scan,No,No,23,"KEY,CREDITCARD",42,2021/08/05 11:19:31+00,,"Washington, DC"
-77.0805923118677,38.9461897940655,13339099,38.946182,-77.08059,Yuma St & Tenley Circle NW,classic,376,active,2021/08/05 08:57:06+00,19,0,0,0,0,Yes,Yes,Yes,Yes,https://dc.lft.to/lastmile_qr_scan,https://dc.lft.to/lastmile_qr_scan,No,No,19,"KEY,CREDITCARD",42,2021/08/05 11:19:31+00,,"Washington, DC"
-77.0769883130587,38.9941208040896,13339100,38.994113,-77.076986,Connecticut Ave & Chevy Chase Lake Dr,classic,377,active,2021/08/05 11:34:19+00,9,0,6,0,0,Yes,Yes,Yes,Yes,https://dc.lft.to/lastmile_qr_scan,https://dc.lft.to/lastmile_qr_scan,No,No,15,"KEY,CREDITCARD",44,2021/08/05 11:19:31+00,,"Montgomery County, MD (South)"
-77.1947763571939,39.1053028223187,13339101,39.105295,-77.194774,Key West Ave & Siesta Key Way,classic,378,active,2021/08/05 08:57:06+00,13,0,1,0,1,Yes,Yes,Yes,Yes,https://dc.lft.to/lastmile_qr_scan,https://dc.lft.to/lastmile_qr_scan,No,No,15,"KEY,CREDITCARD",43,2021/08/05 11:19:31+00,,"Montgomery County, MD (North)"
-77.1180113203113,38.898308783709,13339102,38.898301,-77.118009,Langston Blvd & N Woodstock St,classic,379,active,2021/08/05 02:37:20+00,19,0,0,0,0,Yes,Yes,Yes,Yes,https://dc.lft.to/lastmile_qr_scan,https://dc.lft.to/lastmile_qr_scan,No,No,19,"KEY,CREDITCARD",41,2021/08/05 11:19:31+00,,"Arlington, VA"
-77.0440992919419,38.8127257687539,13339103,38.812718,-77.044097,Saint Asaph St & Madison St,classic,380,active,2021/08/05 12:38:55+00,9,0,6,0,0,Yes,Yes,Yes,Yes,https://dc.lft.to/lastmile_qr_scan,https://dc.lft.to/lastmile_qr_scan,No,No,15,"KEY,CREDITCARD",40,2021/08/05 11:19:31+00,,"Alexandria, VA"
-77.0598192967339,38.8070477673226,13339104,38.80704,-77.059817,King St Metro North / Cameron St,classic,381,active,2021/08/05 14:13:01+00,3,0,12,1,0,Yes,Yes,Yes,Yes,https://dc.lft.to/lastmile_qr_scan,https://dc.lft.to/lastmile_qr_scan,No,No,15,"KEY,CREDITCARD",40,2021/08/05 11:19:31+00,,"Alexandria, VA"
-77.0494702942199,38.8134927690644,13339105,38.813485,-77.049468,Madison St & N Henry St,classic,382,active,2021/08/05 08:57:07+00,10,0,5,0,0,Yes,Yes,Yes,Yes,https://dc.lft.to/lastmile_qr_scan,https://dc.lft.to/lastmile_qr_scan,No,No,15,"KEY,CREDITCARD",40,2021/08/05 11:19:31+00,,"Alexandria, VA"
-77.0978843202859,38.9993858043246,13339106,38.999378,-77.097882,Medical Center Metro ,classic,383,active,2021/08/05 11:47:53+00,3,0,14,0,2,Yes,Yes,Yes,Yes,https://dc.lft.to/lastmile_qr_scan,https://dc.lft.to/lastmile_qr_scan,No,No,19,"KEY,CREDITCARD",44,2021/08/05 11:19:31+00,,"Montgomery County, MD (South)"
-77.1276733220035,38.8848367803519,13339107,38.884829,-77.127671,Washington Blvd & N Frederick St,classic,384,active,2021/08/05 14:25:42+00,6,0,5,0,0,Yes,Yes,Yes,Yes,https://dc.lft.to/lastmile_qr_scan,https://dc.lft.to/lastmile_qr_scan,No,No,11,"KEY,CREDITCARD",41,2021/08/05 11:19:31+00,,"Arlington, VA"
-77.084638313464,38.9582747971511,13339108,38.958267,-77.084636,Wisconsin Ave & Ingomar St NW,classic,385,active,2021/08/05 15:14:59+00,5,0,14,1,0,Yes,Yes,Yes,Yes,https://dc.lft.to/lastmile_qr_scan,https://dc.lft.to/lastmile_qr_scan,No,No,19,"KEY,CREDITCARD",42,2021/08/05 11:19:31+00,,"Washington, DC"
-77.0328022960404,38.9375077942327,13339109,38.9375,-77.0328,14th St & Spring Rd NW,classic,29,active,2021/08/05 14:22:02+00,18,0,1,0,0,Yes,Yes,Yes,Yes,https://dc.lft.to/lastmile_qr_scan,https://dc.lft.to/lastmile_qr_scan,No,No,19,"KEY,CREDITCARD",42,2021/08/05 11:19:31+00,,"Washington, DC"
-76.9955022837563,38.9346077954385,13339110,38.9346,-76.9955,John McCormack Dr & Michigan Ave NE,classic,30,active,2021/08/05 13:21:36+00,6,0,4,0,0,Yes,Yes,Yes,Yes,https://dc.lft.to/lastmile_qr_scan,https://dc.lft.to/lastmile_qr_scan,No,No,11,"KEY,CREDITCARD",42,2021/08/05 11:19:31+00,,"Washington, DC"
-77.019029290048,38.9030477877252,13339111,38.90304,-77.019027,5th & K St NW,classic,31,active,2021/08/05 15:08:43+00,11,0,7,0,1,Yes,Yes,Yes,Yes,https://dc.lft.to/lastmile_qr_scan,https://dc.lft.to/lastmile_qr_scan,No,No,19,"KEY,CREDITCARD",42,2021/08/05 11:19:31+00,,"Washington, DC"
-76.9769022755757,38.889607786517,13339112,38.8896,-76.9769,19th & East Capitol St SE,classic,32,active,2021/08/05 14:52:39+00,9,0,4,0,2,Yes,Yes,Yes,Yes,https://dc.lft.to/lastmile_qr_scan,https://dc.lft.to/lastmile_qr_scan,No,No,15,"KEY,CREDITCARD",42,2021/08/05 11:19:31+00,,"Washington, DC"
-77.0315022951693,38.9308077932707,13339113,38.9308,-77.0315,Park Rd & Holmead Pl NW,classic,33,active,2021/08/05 13:50:37+00,18,0,0,0,0,Yes,Yes,Yes,Yes,https://dc.lft.to/lastmile_qr_scan,https://dc.lft.to/lastmile_qr_scan,No,No,19,"KEY,CREDITCARD",42,2021/08/05 11:19:31+00,,"Washington, DC"
-76.9691862712486,38.8616707817042,13339114,38.861663,-76.969184,Good Hope & Naylor Rd SE,classic,34,active,2021/08/05 08:57:22+00,12,0,7,0,0,Yes,Yes,Yes,Yes,https://dc.lft.to/lastmile_qr_scan,https://dc.lft.to/lastmile_qr_scan,No,No,19,"KEY,CREDITCARD",42,2021/08/05 11:19:31+00,,"Washington, DC"
-77.0579813042288,38.934274792859,13339115,38.934267,-77.057979,Connecticut Ave & Newark St NW / Cleveland Park,classic,35,active,2021/08/05 15:14:18+00,9,0,2,0,0,Yes,Yes,Yes,Yes,https://dc.lft.to/lastmile_qr_scan,https://dc.lft.to/lastmile_qr_scan,No,No,11,"KEY,CREDITCARD",42,2021/08/05 11:19:31+00,,"Washington, DC"
-76.9607022704313,38.8780077851004,13339116,38.878,-76.9607,Randle Circle & Minnesota Ave SE,classic,36,active,2021/08/05 08:56:57+00,3,0,5,1,3,Yes,Yes,Yes,Yes,https://dc.lft.to/lastmile_qr_scan,https://dc.lft.to/lastmile_qr_scan,No,No,11,"KEY,CREDITCARD",42,2021/08/05 11:19:31+00,,"Washington, DC"
-76.9474482670777,38.8970707895964,13339117,38.897063,-76.947446,Minnesota Ave Metro/DOES,classic,37,active,2021/08/05 14:33:03+00,10,0,3,0,1,Yes,Yes,Yes,Yes,https://dc.lft.to/lastmile_qr_scan,https://dc.lft.to/lastmile_qr_scan,No,No,15,"KEY,CREDITCARD",42,2021/08/05 11:19:31+00,,"Washington, DC"
-76.9418792657378,38.9013927903953,13339118,38.901385,-76.941877,Nannie Helen Burroughs & Minnesota Ave NE,classic,38,active,2021/08/05 08:11:13+00,7,0,4,0,0,Yes,Yes,Yes,Yes,https://dc.lft.to/lastmile_qr_scan,https://dc.lft.to/lastmile_qr_scan,No,No,11,"KEY,CREDITCARD",42,2021/08/05 11:19:31+00,,"Washington, DC"
-76.994639279578,38.8626767810857,13339119,38.862669,-76.994637,Anacostia Metro,classic,39,active,2021/08/05 13:11:49+00,7,0,4,0,0,Yes,Yes,Yes,Yes,https://dc.lft.to/lastmile_qr_scan,https://dc.lft.to/lastmile_qr_scan,No,No,11,"KEY,CREDITCARD",42,2021/08/05 11:19:31+00,,"Washington, DC"
-76.9880412779697,38.8673807817059,13339120,38.867373,-76.988039,Good Hope Rd & MLK Ave SE,classic,40,active,2021/08/05 12:00:37+00,6,0,5,0,0,Yes,Yes,Yes,Yes,https://dc.lft.to/lastmile_qr_scan,https://dc.lft.to/lastmile_qr_scan,No,No,11,"KEY,CREDITCARD",42,2021/08/05 11:19:31+00,,"Washington, DC"
-77.0436022963008,38.8952077859529,13339121,38.8952,-77.0436,19th & E Street NW,classic,41,active,2021/08/05 14:24:04+00,6,0,5,0,0,Yes,Yes,Yes,Yes,https://dc.lft.to/lastmile_qr_scan,https://dc.lft.to/lastmile_qr_scan,No,No,11,"KEY,CREDITCARD",42,2021/08/05 11:19:31+00,,"Washington, DC"
-77.0006502849956,38.9190847923507,13339122,38.919077,-77.000648,4th & W St NE,classic,42,active,2021/08/05 14:38:16+00,10,0,4,0,1,Yes,Yes,Yes,Yes,https://dc.lft.to/lastmile_qr_scan,https://dc.lft.to/lastmile_qr_scan,No,No,15,"KEY,CREDITCARD",42,2021/08/05 11:19:31+00,,"Washington, DC"
-77.0259022931643,38.9172077910495,13339123,38.9172,-77.0259,10th & U St NW,classic,43,active,2021/08/05 13:42:20+00,14,0,0,0,1,Yes,Yes,Yes,Yes,https://dc.lft.to/lastmile_qr_scan,https://dc.lft.to/lastmile_qr_scan,No,No,15,"KEY,CREDITCARD",42,2021/08/05 11:19:31+00,,"Washington, DC"
-77.0222022921044,38.9249077923453,13339124,38.9249,-77.0222,Georgia Ave and Fairmont St NW,classic,44,active,2021/08/05 15:13:16+00,9,0,2,0,0,Yes,Yes,Yes,Yes,https://dc.lft.to/lastmile_qr_scan,https://dc.lft.to/lastmile_qr_scan,No,No,11,"KEY,CREDITCARD",42,2021/08/05 11:19:31+00,,"Washington, DC"
-77.005702284184,38.8743077829029,13339125,38.8743,-77.0057,1st & N St  SE,classic,45,active,2021/08/05 15:13:13+00,32,0,6,0,1,Yes,Yes,Yes,Yes,https://dc.lft.to/lastmile_qr_scan,https://dc.lft.to/lastmile_qr_scan,No,No,39,"KEY,CREDITCARD",42,2021/08/05 11:19:31+00,,"Washington, DC"
-77.0446022983091,38.9154077898825,13339126,38.9154,-77.0446,20th St & Florida Ave NW,classic,46,active,2021/08/05 14:28:45+00,14,0,1,0,0,Yes,Yes,Yes,Yes,https://dc.lft.to/lastmile_qr_scan,https://dc.lft.to/lastmile_qr_scan,No,No,15,"KEY,CREDITCARD",42,2021/08/05 11:19:31+00,,"Washington, DC"
-77.0222022908545,38.9155077900928,13339127,38.9155,-77.0222,7th & T St NW,classic,47,active,2021/08/05 14:57:45+00,1,0,11,0,3,Yes,Yes,Yes,Yes,https://dc.lft.to/lastmile_qr_scan,https://dc.lft.to/lastmile_qr_scan,No,No,15,"KEY,CREDITCARD",42,2021/08/05 11:19:31+00,,"Washington, DC"
-77.0534142977735,38.8543887766858,13339128,38.854381,-77.053412,Eads St & 22nd St S,classic,48,active,2021/08/05 14:33:10+00,10,0,3,0,2,Yes,Yes,Yes,Yes,https://dc.lft.to/lastmile_qr_scan,https://dc.lft.to/lastmile_qr_scan,No,No,15,"KEY,CREDITCARD",41,2021/08/05 11:19:31+00,,"Arlington, VA"
-77.0037022828834,38.876307783066,13339129,38.8763,-77.0037,M St & New Jersey Ave SE,classic,49,active,2021/08/05 15:16:44+00,8,0,6,1,2,Yes,Yes,Yes,Yes,https://dc.lft.to/lastmile_qr_scan,https://dc.lft.to/lastmile_qr_scan,No,No,17,"KEY,CREDITCARD",42,2021/08/05 11:19:31+00,,"Washington, DC"
-77.0444022976075,38.9101077881762,13339130,38.9101,-77.0444,Massachusetts Ave & Dupont Circle NW,classic,51,active,2021/08/05 14:18:50+00,20,0,23,1,2,Yes,Yes,Yes,Yes,https://dc.lft.to/lastmile_qr_scan,https://dc.lft.to/lastmile_qr_scan,No,No,45,"KEY,CREDITCARD",42,2021/08/05 11:19:31+00,,"Washington, DC"
-77.0054852852958,38.9057047895081,13339131,38.905697,-77.005483,1st & M St NE,classic,52,active,2021/08/05 15:15:58+00,4,0,8,1,3,Yes,Yes,Yes,Yes,https://dc.lft.to/lastmile_qr_scan,https://dc.lft.to/lastmile_qr_scan,No,No,15,"KEY,CREDITCARD",42,2021/08/05 11:19:31+00,,"Washington, DC"
-77.0473202986222,38.9057187878528,13339132,38.905711,-77.047318,New Hampshire Ave & Ward Pl NW,classic,53,active,2021/08/05 15:16:10+00,16,0,3,0,0,Yes,Yes,Yes,Yes,https://dc.lft.to/lastmile_qr_scan,https://dc.lft.to/lastmile_qr_scan,No,No,19,"KEY,CREDITCARD",42,2021/08/05 11:19:31+00,,"Washington, DC"
-77.0386322952254,38.9027677877434,13339133,38.90276,-77.03863,17th & K St NW,classic,54,active,2021/08/05 14:48:04+00,13,0,6,0,4,Yes,Yes,Yes,Yes,https://dc.lft.to/lastmile_qr_scan,https://dc.lft.to/lastmile_qr_scan,No,No,23,"KEY,CREDITCARD",42,2021/08/05 11:19:31+00,,"Washington, DC"
-77.0152912877122,38.8994157874736,13339134,38.899408,-77.015289,3rd & H St NW,classic,55,active,2021/08/05 13:30:19+00,8,0,7,0,0,Yes,Yes,Yes,Yes,https://dc.lft.to/lastmile_qr_scan,https://dc.lft.to/lastmile_qr_scan,No,No,15,"KEY,CREDITCARD",42,2021/08/05 11:19:31+00,,"Washington, DC"
-77.0023022837883,38.8851077855465,13339135,38.8851,-77.0023,3rd & D St SE,classic,56,active,2021/08/05 15:13:38+00,11,0,0,0,0,Yes,Yes,Yes,Yes,https://dc.lft.to/lastmile_qr_scan,https://dc.lft.to/lastmile_qr_scan,No,No,11,"KEY,CREDITCARD",42,2021/08/05 11:19:31+00,,"Washington, DC"
-76.9862022781927,38.8803077848106,13339136,38.8803,-76.9862,Potomac & Pennsylvania Ave SE,classic,57,active,2021/08/05 15:09:43+00,8,0,6,1,1,Yes,Yes,Yes,Yes,https://dc.lft.to/lastmile_qr_scan,https://dc.lft.to/lastmile_qr_scan,No,No,15,"KEY,CREDITCARD",42,2021/08/05 11:19:31+00,,"Washington, DC"
-76.987909278635,38.8829227851608,13339137,38.882915,-76.987907,13th & E St SE,classic,58,active,2021/08/05 14:17:57+00,2,0,13,1,0,Yes,Yes,Yes,Yes,https://dc.lft.to/lastmile_qr_scan,https://dc.lft.to/lastmile_qr_scan,No,No,15,"KEY,CREDITCARD",42,2021/08/05 11:19:31+00,,"Washington, DC"
-77.0387022958547,38.9121077892895,13339138,38.9121,-77.0387,17th & Corcoran St NW,classic,59,active,2021/08/05 13:52:34+00,19,0,0,0,0,Yes,Yes,Yes,Yes,https://dc.lft.to/lastmile_qr_scan,https://dc.lft.to/lastmile_qr_scan,No,No,19,"KEY,CREDITCARD",42,2021/08/05 11:19:31+00,,"Washington, DC"
-77.0638983064667,38.9445587943649,13339139,38.944551,-77.063896,Van Ness Metro / UDC,classic,60,active,2021/08/05 14:50:22+00,11,0,2,0,1,Yes,Yes,Yes,Yes,https://dc.lft.to/lastmile_qr_scan,https://dc.lft.to/lastmile_qr_scan,No,No,15,"KEY,CREDITCARD",42,2021/08/05 11:19:31+00,,"Washington, DC"
-77.0135022882186,38.9126077906828,13339140,38.9126,-77.0135,Florida Ave & R St NW,classic,61,active,2021/08/05 14:53:46+00,13,0,0,0,2,Yes,Yes,Yes,Yes,https://dc.lft.to/lastmile_qr_scan,https://dc.lft.to/lastmile_qr_scan,No,No,15,"KEY,CREDITCARD",42,2021/08/05 11:19:31+00,,"Washington, DC"
-76.995302281281,38.8792077841484,13339141,38.8792,-76.9953,8th & Eye St SE / Barracks Row,classic,62,active,2021/08/05 14:39:23+00,5,0,6,0,0,Yes,Yes,Yes,Yes,https://dc.lft.to/lastmile_qr_scan,https://dc.lft.to/lastmile_qr_scan,No,No,11,"KEY,CREDITCARD",42,2021/08/05 11:19:31+00,,"Washington, DC"
-77.0871733129286,38.9387437925591,13339142,38.938736,-77.087171,Ward Circle / American University,classic,63,active,2021/08/05 13:47:09+00,3,0,12,7,0,Yes,Yes,Yes,Yes,https://dc.lft.to/lastmile_qr_scan,https://dc.lft.to/lastmile_qr_scan,No,No,15,"KEY,CREDITCARD",42,2021/08/05 11:19:31+00,,"Washington, DC"
-77.0727573078429,38.9348887926769,13339143,38.934881,-77.072755,Wisconsin Ave & Newark St NW,classic,64,active,2021/08/05 14:06:33+00,17,0,1,0,1,Yes,Yes,Yes,Yes,https://dc.lft.to/lastmile_qr_scan,https://dc.lft.to/lastmile_qr_scan,No,No,19,"KEY,CREDITCARD",42,2021/08/05 11:19:31+00,,"Washington, DC"
-77.0328202971405,38.9477817965734,13339144,38.947774,-77.032818,14th St Heights / 14th & Crittenden St NW,classic,65,active,2021/08/05 15:16:14+00,8,0,1,0,1,Yes,Yes,Yes,Yes,https://dc.lft.to/lastmile_qr_scan,https://dc.lft.to/lastmile_qr_scan,No,No,11,"KEY,CREDITCARD",42,2021/08/05 11:19:31+00,,"Washington, DC"
-76.978402274395,38.8657917821162,13339145,38.865784,-76.9784,Anacostia Library,classic,66,active,2021/08/05 11:23:48+00,10,0,1,0,0,Yes,Yes,Yes,Yes,https://dc.lft.to/lastmile_qr_scan,https://dc.lft.to/lastmile_qr_scan,No,No,11,"KEY,CREDITCARD",42,2021/08/05 11:19:31+00,,"Washington, DC"
-76.9710172729981,38.8730647836373,13339146,38.873057,-76.971015,Pennsylvania & Minnesota Ave SE,classic,67,active,2021/08/05 08:56:57+00,1,0,5,0,5,Yes,Yes,Yes,Yes,https://dc.lft.to/lastmile_qr_scan,https://dc.lft.to/lastmile_qr_scan,No,No,11,"KEY,CREDITCARD",42,2021/08/05 11:19:31+00,,"Washington, DC"
-76.9968082815343,38.8869597854846,13339147,38.886952,-76.996806,Eastern Market / 7th & North Carolina Ave SE,classic,68,active,2021/08/05 15:08:56+00,9,0,6,2,0,Yes,Yes,Yes,Yes,https://dc.lft.to/lastmile_qr_scan,https://dc.lft.to/lastmile_qr_scan,No,No,15,"KEY,CREDITCARD",42,2021/08/05 11:19:31+00,,"Washington, DC"
-77.0316882931334,38.899639787387,13339148,38.899632,-77.031686,14th St & New York Ave NW,classic,69,active,2021/08/05 14:20:49+00,17,0,5,0,1,Yes,Yes,Yes,Yes,https://dc.lft.to/lastmile_qr_scan,https://dc.lft.to/lastmile_qr_scan,No,No,23,"KEY,CREDITCARD",42,2021/08/05 11:19:31+00,,"Washington, DC"
-76.9479762675126,38.8940077886195,13339149,38.894,-76.947974,Benning Branch Library,classic,70,active,2021/08/05 08:41:18+00,7,0,4,0,0,Yes,Yes,Yes,Yes,https://dc.lft.to/lastmile_qr_scan,https://dc.lft.to/lastmile_qr_scan,No,No,11,"KEY,CREDITCARD",42,2021/08/05 11:19:31+00,,"Washington, DC"
-77.0282442918189,38.8862847846868,13339150,38.886277,-77.028242,USDA / 12th & C St SW,classic,71,active,2021/08/05 13:38:46+00,32,0,6,0,1,Yes,Yes,Yes,Yes,https://dc.lft.to/lastmile_qr_scan,https://dc.lft.to/lastmile_qr_scan,No,No,39,"KEY,CREDITCARD",42,2021/08/05 11:19:31+00,,"Washington, DC"
-77.0591443024242,38.9023217868395,13339151,38.902314,-77.059142,Georgetown Harbor / 30th St NW,classic,72,active,2021/08/05 14:07:41+00,8,0,11,0,0,Yes,Yes,Yes,Yes,https://dc.lft.to/lastmile_qr_scan,https://dc.lft.to/lastmile_qr_scan,No,No,19,"KEY,CREDITCARD",42,2021/08/05 11:19:31+00,,"Washington, DC"
-76.9910182824122,38.9336757954994,13339152,38.933668,-76.991016,12th & Newton St NE,classic,73,active,2021/08/05 14:35:18+00,7,0,4,0,0,Yes,Yes,Yes,Yes,https://dc.lft.to/lastmile_qr_scan,https://dc.lft.to/lastmile_qr_scan,No,No,11,"KEY,CREDITCARD",42,2021/08/05 11:19:31+00,,"Washington, DC"
-77.0465892978385,38.894926785096,13339153,38.894919,-77.046587,US Dept of State / Virginia Ave & 21st St NW,classic,74,active,2021/08/05 14:35:04+00,2,0,12,5,0,Yes,Yes,Yes,Yes,https://dc.lft.to/lastmile_qr_scan,https://dc.lft.to/lastmile_qr_scan,No,No,15,"KEY,CREDITCARD",42,2021/08/05 11:19:31+00,,"Washington, DC"
-77.022243289435,38.886273784424,13339154,38.886266,-77.022241,L'Enfant Plaza / 7th & C St SW,classic,75,active,2021/08/05 15:07:55+00,1,0,14,0,0,Yes,Yes,Yes,Yes,https://dc.lft.to/lastmile_qr_scan,https://dc.lft.to/lastmile_qr_scan,No,No,15,"KEY,CREDITCARD",42,2021/08/05 11:19:31+00,,"Washington, DC"
-77.0260152916546,38.8930357857616,13339155,38.893028,-77.026013,10th St & Constitution Ave NW,classic,76,active,2021/08/05 14:36:35+00,21,0,8,0,2,Yes,Yes,Yes,Yes,https://dc.lft.to/lastmile_qr_scan,https://dc.lft.to/lastmile_qr_scan,No,No,31,"KEY,CREDITCARD",42,2021/08/05 11:19:31+00,,"Washington, DC"
-77.0555723008236,38.8973007859184,13339156,38.897293,-77.05557,Kennedy Center,classic,77,active,2021/08/05 14:30:12+00,6,0,10,0,3,Yes,Yes,Yes,Yes,https://dc.lft.to/lastmile_qr_scan,https://dc.lft.to/lastmile_qr_scan,No,No,19,"KEY,CREDITCARD",42,2021/08/05 11:19:31+00,,"Washington, DC"
-76.9952362815061,38.8841027853526,13339157,38.884095,-76.995234,Eastern Market Metro / Pennsylvania Ave & 8th St SE,classic,78,active,2021/08/05 15:12:57+00,8,0,10,0,1,Yes,Yes,Yes,Yes,https://dc.lft.to/lastmile_qr_scan,https://dc.lft.to/lastmile_qr_scan,No,No,19,"KEY,CREDITCARD",42,2021/08/05 11:19:31+00,,"Washington, DC"
-77.0417812971495,38.9050747877066,13339158,38.905067,-77.041779,18th & M St NW,classic,79,active,2021/08/05 15:06:38+00,14,0,10,1,2,Yes,Yes,Yes,Yes,https://dc.lft.to/lastmile_qr_scan,https://dc.lft.to/lastmile_qr_scan,No,No,27,"KEY,CREDITCARD",42,2021/08/05 11:19:31+00,,"Washington, DC"
-77.0793843111769,38.947614794478,13339159,38.947607,-77.079382,Tenleytown / Wisconsin Ave & Albemarle St NW,classic,80,active,2021/08/05 14:23:34+00,13,0,0,0,1,Yes,Yes,Yes,Yes,https://dc.lft.to/lastmile_qr_scan,https://dc.lft.to/lastmile_qr_scan,No,No,15,"KEY,CREDITCARD",42,2021/08/05 11:19:31+00,,"Washington, DC"
-76.9882522799806,38.9004347886716,13339160,38.900427,-76.98825,13th & H St NE,classic,81,active,2021/08/05 13:58:29+00,12,0,15,1,0,Yes,Yes,Yes,Yes,https://dc.lft.to/lastmile_qr_scan,https://dc.lft.to/lastmile_qr_scan,No,No,27,"KEY,CREDITCARD",42,2021/08/05 11:19:31+00,,"Washington, DC"
-77.0193492894624,38.8972297865742,13339161,38.897222,-77.019347,5th & F St NW,classic,82,active,2021/08/05 15:03:14+00,22,0,9,0,0,Yes,Yes,Yes,Yes,https://dc.lft.to/lastmile_qr_scan,https://dc.lft.to/lastmile_qr_scan,No,No,31,"KEY,CREDITCARD",42,2021/08/05 11:19:31+00,,"Washington, DC"
-77.0333562943199,38.8990397867887,13339162,38.899032,-77.033354,New York Ave & 15th St NW,classic,83,active,2021/08/05 14:58:36+00,7,0,11,0,1,Yes,Yes,Yes,Yes,https://dc.lft.to/lastmile_qr_scan,https://dc.lft.to/lastmile_qr_scan,No,No,19,"KEY,CREDITCARD",42,2021/08/05 11:19:31+00,,"Washington, DC"
-77.0222722909774,38.9057447883907,13339163,38.905737,-77.02227,Convention Center / 7th & M St NW,classic,84,active,2021/08/05 14:59:57+00,20,0,2,0,1,Yes,Yes,Yes,Yes,https://dc.lft.to/lastmile_qr_scan,https://dc.lft.to/lastmile_qr_scan,No,No,23,"KEY,CREDITCARD",42,2021/08/05 11:19:31+00,,"Washington, DC"
-77.0433602985012,38.9278797924986,13339164,38.927872,-77.043358,Harvard St & Adams Mill Rd NW,classic,85,active,2021/08/05 15:15:26+00,9,0,5,0,1,Yes,Yes,Yes,Yes,https://dc.lft.to/lastmile_qr_scan,https://dc.lft.to/lastmile_qr_scan,No,No,15,"KEY,CREDITCARD",42,2021/08/05 11:19:31+00,,"Washington, DC"
-77.0424542970577,38.9037487874051,13339165,38.903741,-77.042452,18th & L St NW,classic,86,active,2021/08/05 14:54:29+00,13,0,5,0,1,Yes,Yes,Yes,Yes,https://dc.lft.to/lastmile_qr_scan,https://dc.lft.to/lastmile_qr_scan,No,No,19,"KEY,CREDITCARD",42,2021/08/05 11:19:31+00,,"Washington, DC"
-77.0626923034905,38.9037577867826,13339166,38.90375,-77.06269,C & O Canal & Wisconsin Ave NW,classic,87,active,2021/08/05 15:15:57+00,6,0,15,0,1,Yes,Yes,Yes,Yes,https://dc.lft.to/lastmile_qr_scan,https://dc.lft.to/lastmile_qr_scan,No,No,23,"KEY,CREDITCARD",42,2021/08/05 11:19:31+00,,"Washington, DC"
-77.0230562891102,38.8787017826249,13339167,38.878694,-77.023054,Maine Ave & 7th St SW,classic,88,active,2021/08/05 15:10:30+00,16,0,3,1,0,Yes,Yes,Yes,Yes,https://dc.lft.to/lastmile_qr_scan,https://dc.lft.to/lastmile_qr_scan,No,No,19,"KEY,CREDITCARD",42,2021/08/05 11:19:31+00,,"Washington, DC"
-76.9959182815362,38.8948487871191,13339168,38.894841,-76.995916,D St & Maryland Ave NE,classic,89,active,2021/08/05 15:11:36+00,8,0,13,0,2,Yes,Yes,Yes,Yes,https://dc.lft.to/lastmile_qr_scan,https://dc.lft.to/lastmile_qr_scan,No,No,23,"KEY,CREDITCARD",42,2021/08/05 11:19:31+00,,"Washington, DC"
-77.0682023063296,38.916449788688,13339169,38.916442,-77.0682,34th St & Wisconsin Ave NW,classic,90,active,2021/08/05 14:53:30+00,6,0,4,2,1,Yes,Yes,Yes,Yes,https://dc.lft.to/lastmile_qr_scan,https://dc.lft.to/lastmile_qr_scan,No,No,11,"KEY,CREDITCARD",42,2021/08/05 11:19:31+00,,"Washington, DC"
-77.0298242925535,38.9002907872086,13339170,38.900283,-77.029822,13th St & New York Ave NW,classic,91,active,2021/08/05 14:36:27+00,16,0,6,0,1,Yes,Yes,Yes,Yes,https://dc.lft.to/lastmile_qr_scan,https://dc.lft.to/lastmile_qr_scan,No,No,23,"KEY,CREDITCARD",42,2021/08/05 11:19:31+00,,"Washington, DC"
-77.0230882911528,38.8997077872837,13339171,38.8997,-77.023086,8th & H St NW,classic,92,active,2021/08/05 15:11:37+00,24,0,7,0,2,Yes,Yes,Yes,Yes,https://dc.lft.to/lastmile_qr_scan,https://dc.lft.to/lastmile_qr_scan,No,No,33,"KEY,CREDITCARD",42,2021/08/05 11:19:31+00,,"Washington, DC"
-76.9928912829599,38.9325217947146,13339172,38.932514,-76.992889,10th & Monroe St NE,classic,93,active,2021/08/05 14:37:16+00,13,0,1,0,1,Yes,Yes,Yes,Yes,https://dc.lft.to/lastmile_qr_scan,https://dc.lft.to/lastmile_qr_scan,No,No,15,"KEY,CREDITCARD",42,2021/08/05 11:19:31+00,,"Washington, DC"
-77.0049522859023,38.9109797903935,13339173,38.910972,-77.00495,Eckington Pl & Q St NE,classic,94,active,2021/08/05 15:02:04+00,20,0,0,0,3,Yes,Yes,Yes,Yes,https://dc.lft.to/lastmile_qr_scan,https://dc.lft.to/lastmile_qr_scan,No,No,23,"KEY,CREDITCARD",42,2021/08/05 11:19:31+00,,"Washington, DC"
-76.9983492826138,38.8999797886103,13339174,38.899972,-76.998347,6th & H St NE,classic,95,active,2021/08/05 15:10:42+00,18,0,3,0,0,Yes,Yes,Yes,Yes,https://dc.lft.to/lastmile_qr_scan,https://dc.lft.to/lastmile_qr_scan,No,No,23,"KEY,CREDITCARD",42,2021/08/05 11:19:31+00,,"Washington, DC"
-77.0019512839867,38.9004197882473,13339175,38.900412,-77.001949,3rd & H St NE,classic,96,active,2021/08/05 13:45:25+00,15,0,2,0,1,Yes,Yes,Yes,Yes,https://dc.lft.to/lastmile_qr_scan,https://dc.lft.to/lastmile_qr_scan,No,No,19,"KEY,CREDITCARD",42,2021/08/05 11:19:31+00,,"Washington, DC"
-76.9828742782782,38.9004207891,13339176,38.900413,-76.982872,Bladensburg Rd & Benning Rd NE,classic,97,active,2021/08/05 12:49:54+00,6,0,7,0,2,Yes,Yes,Yes,Yes,https://dc.lft.to/lastmile_qr_scan,https://dc.lft.to/lastmile_qr_scan,No,No,15,"KEY,CREDITCARD",42,2021/08/05 11:19:31+00,,"Washington, DC"
-77.0003512833591,38.8899627859636,13339177,38.889955,-77.000349,4th & East Capitol St NE,classic,98,active,2021/08/05 14:57:13+00,10,0,1,0,0,Yes,Yes,Yes,Yes,https://dc.lft.to/lastmile_qr_scan,https://dc.lft.to/lastmile_qr_scan,No,No,11,"KEY,CREDITCARD",42,2021/08/05 11:19:31+00,,"Washington, DC"
-76.9883572790824,38.8904687870827,13339178,38.890461,-76.988355,Lincoln Park / 13th & East Capitol St NE ,classic,99,active,2021/08/05 14:10:48+00,10,0,15,0,0,Yes,Yes,Yes,Yes,https://dc.lft.to/lastmile_qr_scan,https://dc.lft.to/lastmile_qr_scan,No,No,25,"KEY,CREDITCARD",42,2021/08/05 11:19:31+00,,"Washington, DC"
-76.959902269551,38.869207783748,13339179,38.8692,-76.9599,Branch & Pennsylvania Ave SE,classic,100,active,2021/08/05 13:58:43+00,8,0,3,1,0,Yes,Yes,Yes,Yes,https://dc.lft.to/lastmile_qr_scan,https://dc.lft.to/lastmile_qr_scan,No,No,11,"KEY,CREDITCARD",42,2021/08/05 11:19:31+00,,"Washington, DC"
-76.9876352792593,38.8948397876649,13339180,38.894832,-76.987633,13th & D St NE,classic,101,active,2021/08/05 14:57:36+00,15,0,14,0,2,Yes,Yes,Yes,Yes,https://dc.lft.to/lastmile_qr_scan,https://dc.lft.to/lastmile_qr_scan,No,No,31,"KEY,CREDITCARD",42,2021/08/05 11:19:31+00,,"Washington, DC"
-77.0382542965482,38.9155517895081,13339181,38.915544,-77.038252,New Hampshire Ave & T St NW,classic,102,active,2021/08/05 14:59:29+00,22,0,0,0,1,Yes,Yes,Yes,Yes,https://dc.lft.to/lastmile_qr_scan,https://dc.lft.to/lastmile_qr_scan,No,No,23,"KEY,CREDITCARD",42,2021/08/05 11:19:31+00,,"Washington, DC"
-77.0278712924521,38.8983717866907,13339182,38.898364,-77.027869,Metro Center / 12th & G St NW,classic,103,active,2021/08/05 15:08:09+00,22,0,14,1,3,Yes,Yes,Yes,Yes,https://dc.lft.to/lastmile_qr_scan,https://dc.lft.to/lastmile_qr_scan,No,No,39,"KEY,CREDITCARD",42,2021/08/05 11:19:31+00,,"Washington, DC"
-77.0316192926509,38.8945217860863,13339183,38.894514,-77.031617,14th & D St NW / Ronald Reagan Building,classic,104,active,2021/08/05 14:40:57+00,12,0,13,1,0,Yes,Yes,Yes,Yes,https://dc.lft.to/lastmile_qr_scan,https://dc.lft.to/lastmile_qr_scan,No,No,25,"KEY,CREDITCARD",42,2021/08/05 11:19:31+00,,"Washington, DC"
-77.0221932902817,38.8972907872541,13339184,38.897283,-77.022191,7th & F St NW / National Portrait Gallery,classic,105,active,2021/08/05 14:57:19+00,24,0,0,0,3,Yes,Yes,Yes,Yes,https://dc.lft.to/lastmile_qr_scan,https://dc.lft.to/lastmile_qr_scan,No,No,27,"KEY,CREDITCARD",42,2021/08/05 11:19:31+00,,"Washington, DC"
-77.038324295096,38.9020687875247,13339185,38.902061,-77.038322,17th & K St NW / Farragut Square,classic,106,active,2021/08/05 15:02:41+00,10,0,25,1,0,Yes,Yes,Yes,Yes,https://dc.lft.to/lastmile_qr_scan,https://dc.lft.to/lastmile_qr_scan,No,No,35,"KEY,CREDITCARD",42,2021/08/05 11:19:31+00,,"Washington, DC"
-77.0447822980092,38.9089127887526,13339186,38.908905,-77.04478,20th & O St NW / Dupont South,classic,107,active,2021/08/05 15:10:46+00,7,0,11,0,1,Yes,Yes,Yes,Yes,https://dc.lft.to/lastmile_qr_scan,https://dc.lft.to/lastmile_qr_scan,No,No,19,"KEY,CREDITCARD",42,2021/08/05 11:19:31+00,,"Washington, DC"
-77.0161082886591,38.8953517863699,13339187,38.895344,-77.016106,4th & D St NW / Judiciary Square,classic,108,active,2021/08/05 14:53:49+00,3,0,12,2,0,Yes,Yes,Yes,Yes,https://dc.lft.to/lastmile_qr_scan,https://dc.lft.to/lastmile_qr_scan,No,No,15,"KEY,CREDITCARD",42,2021/08/05 11:19:31+00,,"Washington, DC"
-77.0436022966707,38.8923077849277,13339188,38.8923,-77.0436,19th St & Constitution Ave NW,classic,109,active,2021/08/05 14:28:13+00,24,0,10,0,1,Yes,Yes,Yes,Yes,https://dc.lft.to/lastmile_qr_scan,https://dc.lft.to/lastmile_qr_scan,No,No,35,"KEY,CREDITCARD",42,2021/08/05 11:19:31+00,,"Washington, DC"
-77.0716543066448,38.9077477873169,13339189,38.90774,-77.071652,37th & O St NW / Georgetown University,classic,110,active,2021/08/05 14:47:23+00,1,0,22,0,0,Yes,Yes,Yes,Yes,https://dc.lft.to/lastmile_qr_scan,https://dc.lft.to/lastmile_qr_scan,No,No,23,"KEY,CREDITCARD",42,2021/08/05 11:19:31+00,,"Washington, DC"
-76.9913852803842,38.8999907882588,13339190,38.899983,-76.991383,11th & H St NE,classic,111,active,2021/08/05 15:06:08+00,19,0,0,0,0,Yes,Yes,Yes,Yes,https://dc.lft.to/lastmile_qr_scan,https://dc.lft.to/lastmile_qr_scan,No,No,19,"KEY,CREDITCARD",42,2021/08/05 11:19:31+00,,"Washington, DC"
-77.0534873000009,38.9038347873966,13339191,38.903827,-77.053485,25th St & Pennsylvania Ave NW,classic,112,active,2021/08/05 15:03:13+00,7,0,7,0,1,Yes,Yes,Yes,Yes,https://dc.lft.to/lastmile_qr_scan,https://dc.lft.to/lastmile_qr_scan,No,No,15,"KEY,CREDITCARD",42,2021/08/05 11:19:31+00,,"Washington, DC"
-77.004932285147,38.8969677877807,13339192,38.89696,-77.00493,Columbus Circle / Union Station,classic,113,active,2021/08/05 15:13:21+00,33,0,19,0,3,Yes,Yes,Yes,Yes,https://dc.lft.to/lastmile_qr_scan,https://dc.lft.to/lastmile_qr_scan,No,No,55,"KEY,CREDITCARD",42,2021/08/05 11:19:31+00,,"Washington, DC"
-77.0098902859791,38.8974537870179,13339193,38.897446,-77.009888,North Capitol St & F St NW,classic,114,active,2021/08/05 15:15:01+00,13,0,10,0,0,Yes,Yes,Yes,Yes,https://dc.lft.to/lastmile_qr_scan,https://dc.lft.to/lastmile_qr_scan,No,No,23,"KEY,CREDITCARD",42,2021/08/05 11:19:31+00,,"Washington, DC"
-77.0273152918472,38.9055867881141,13339194,38.905579,-77.027313,11th & M St NW,classic,115,active,2021/08/05 15:05:16+00,18,0,0,0,1,Yes,Yes,Yes,Yes,https://dc.lft.to/lastmile_qr_scan,https://dc.lft.to/lastmile_qr_scan,No,No,19,"KEY,CREDITCARD",42,2021/08/05 11:19:31+00,,"Washington, DC"
-77.0703363069672,38.9225887902635,13339195,38.922581,-77.070334,36th & Calvert St NW / Glover Park,classic,116,active,2021/08/05 12:06:48+00,14,0,0,0,1,Yes,Yes,Yes,Yes,https://dc.lft.to/lastmile_qr_scan,https://dc.lft.to/lastmile_qr_scan,No,No,15,"KEY,CREDITCARD",42,2021/08/05 11:19:31+00,,"Washington, DC"
-77.0322802940153,38.8984167869411,13339196,38.898409,-77.032278,14th & G St NW,classic,117,active,2021/08/05 15:04:33+00,17,0,6,0,0,Yes,Yes,Yes,Yes,https://dc.lft.to/lastmile_qr_scan,https://dc.lft.to/lastmile_qr_scan,No,No,23,"KEY,CREDITCARD",42,2021/08/05 11:19:31+00,,"Washington, DC"
-77.0505392954723,38.8440227754191,13339197,38.844015,-77.050537,Potomac Ave & 35th St S,classic,118,active,2021/08/05 13:57:24+00,10,0,5,0,0,Yes,Yes,Yes,Yes,https://dc.lft.to/lastmile_qr_scan,https://dc.lft.to/lastmile_qr_scan,No,No,15,"KEY,CREDITCARD",41,2021/08/05 11:19:31+00,,"Arlington, VA"
-77.0465722972573,38.8841277832104,13339198,38.88412,-77.04657,Ohio Dr & West Basin Dr SW / MLK & FDR Memorials,classic,124,active,2021/08/05 15:16:07+00,19,0,9,1,3,Yes,Yes,Yes,Yes,https://dc.lft.to/lastmile_qr_scan,https://dc.lft.to/lastmile_qr_scan,No,No,31,"KEY,CREDITCARD",42,2021/08/05 11:19:31+00,,"Washington, DC"
-77.026977291676,38.8978647869639,13339199,38.897857,-77.026975,11th & F St NW,classic,125,active,2021/08/05 14:36:49+00,5,0,10,0,0,Yes,Yes,Yes,Yes,https://dc.lft.to/lastmile_qr_scan,https://dc.lft.to/lastmile_qr_scan,No,No,15,"KEY,CREDITCARD",42,2021/08/05 11:19:31+00,,"Washington, DC"
-77.0498842992363,38.8961117851653,13339200,38.896104,-77.049882,23rd & E St NW ,classic,126,active,2021/08/05 14:19:15+00,5,0,14,0,0,Yes,Yes,Yes,Yes,https://dc.lft.to/lastmile_qr_scan,https://dc.lft.to/lastmile_qr_scan,No,No,19,"KEY,CREDITCARD",42,2021/08/05 11:19:31+00,,"Washington, DC"
-77.0709953059498,38.8973227852373,13339841,38.897315,-77.070993,Lynn St & 19th St North,classic,127,active,2021/08/05 13:45:36+00,24,0,2,0,1,Yes,Yes,Yes,Yes,https://dc.lft.to/lastmile_qr_scan,https://dc.lft.to/lastmile_qr_scan,No,No,27,"KEY,CREDITCARD",41,2021/08/05 11:19:31+00,,"Arlington, VA"
-77.0723073060526,38.8946077848598,13339842,38.8946,-77.072305,Rosslyn Metro / Wilson Blvd & Ft Myer Dr,classic,128,active,2021/08/05 13:09:44+00,4,0,14,0,1,Yes,Yes,Yes,Yes,https://dc.lft.to/lastmile_qr_scan,https://dc.lft.to/lastmile_qr_scan,No,No,19,"KEY,CREDITCARD",41,2021/08/05 11:19:31+00,,"Arlington, VA"
-77.0763913074657,38.8934457844079,13339843,38.893438,-77.076389,Clarendon Blvd & Pierce St,classic,129,active,2021/08/05 12:31:15+00,9,0,6,0,0,Yes,Yes,Yes,Yes,https://dc.lft.to/lastmile_qr_scan,https://dc.lft.to/lastmile_qr_scan,No,No,15,"KEY,CREDITCARD",41,2021/08/05 11:19:31+00,,"Arlington, VA"
-77.0846023096491,38.8917037831255,13339844,38.891696,-77.0846,Wilson Blvd & N Uhle St,classic,130,active,2021/08/05 08:57:20+00,9,0,5,0,1,Yes,Yes,Yes,Yes,https://dc.lft.to/lastmile_qr_scan,https://dc.lft.to/lastmile_qr_scan,No,No,15,"KEY,CREDITCARD",41,2021/08/05 11:19:31+00,,"Arlington, VA"
-77.0793773073936,38.8921717838514,13339845,38.892164,-77.079375,Rhodes St & 16th St N,classic,131,active,2021/08/05 15:14:45+00,2,0,9,0,1,Yes,Yes,Yes,Yes,https://dc.lft.to/lastmile_qr_scan,https://dc.lft.to/lastmile_qr_scan,No,No,12,"KEY,CREDITCARD",41,2021/08/05 11:19:31+00,,"Arlington, VA"
-76.9521052670608,38.865597783207,13339846,38.86559,-76.952103,Fairfax Village,classic,132,active,2021/08/05 13:22:23+00,10,0,5,0,0,Yes,Yes,Yes,Yes,https://dc.lft.to/lastmile_qr_scan,https://dc.lft.to/lastmile_qr_scan,No,No,15,"KEY,CREDITCARD",42,2021/08/05 11:19:31+00,,"Washington, DC"
-77.0465692976898,38.8924667851587,13339847,38.892459,-77.046567,21st St & Constitution Ave NW,classic,133,active,2021/08/05 15:12:02+00,7,0,7,0,1,Yes,Yes,Yes,Yes,https://dc.lft.to/lastmile_qr_scan,https://dc.lft.to/lastmile_qr_scan,No,No,15,"KEY,CREDITCARD",42,2021/08/05 11:19:31+00,,"Washington, DC"
-77.0925023116004,38.889007782716,13339848,38.889,-77.0925,Wilson Blvd & N Edgewood St,classic,134,active,2021/08/05 12:49:35+00,13,0,1,0,1,Yes,Yes,Yes,Yes,https://dc.lft.to/lastmile_qr_scan,https://dc.lft.to/lastmile_qr_scan,No,No,15,"KEY,CREDITCARD",41,2021/08/05 11:19:31+00,,"Arlington, VA"
-77.0436822981598,38.9206767909007,13339849,38.920669,-77.04368,Columbia Rd & Belmont St NW,classic,135,active,2021/08/05 14:54:45+00,14,0,4,0,1,Yes,Yes,Yes,Yes,https://dc.lft.to/lastmile_qr_scan,https://dc.lft.to/lastmile_qr_scan,No,No,19,"KEY,CREDITCARD",42,2021/08/05 11:19:31+00,,"Washington, DC"
-77.0398042964231,38.906003787815,13339850,38.905996,-77.039802,Rhode Island & Connecticut Ave NW,classic,136,active,2021/08/05 15:10:35+00,10,0,13,1,0,Yes,Yes,Yes,Yes,https://dc.lft.to/lastmile_qr_scan,https://dc.lft.to/lastmile_qr_scan,No,No,23,"KEY,CREDITCARD",42,2021/08/05 11:19:31+00,,"Washington, DC"
-77.0325022943272,38.9059077879984,13339851,38.9059,-77.0325,Thomas Circle,classic,137,active,2021/08/05 15:11:17+00,30,0,2,0,1,Yes,Yes,Yes,Yes,https://dc.lft.to/lastmile_qr_scan,https://dc.lft.to/lastmile_qr_scan,No,No,33,"KEY,CREDITCARD",42,2021/08/05 11:19:31+00,,"Washington, DC"
-77.088902310076,38.8904077826658,13339852,38.8904,-77.0889,Wilson Blvd & N Franklin Rd,classic,138,active,2021/08/05 12:48:30+00,11,0,1,0,0,Yes,Yes,Yes,Yes,https://dc.lft.to/lastmile_qr_scan,https://dc.lft.to/lastmile_qr_scan,No,No,12,"KEY,CREDITCARD",41,2021/08/05 11:19:31+00,,"Arlington, VA"
-77.0930823112497,38.8881077826278,13339853,38.8881,-77.09308,Clarendon Blvd & N Fillmore St,classic,139,active,2021/08/05 12:48:01+00,13,0,1,0,1,Yes,Yes,Yes,Yes,https://dc.lft.to/lastmile_qr_scan,https://dc.lft.to/lastmile_qr_scan,No,No,15,"KEY,CREDITCARD",41,2021/08/05 11:19:31+00,,"Arlington, VA"
-77.0952593123919,38.8870177820847,13339854,38.88701,-77.095257,Clarendon Metro / Wilson Blvd & N Highland St,classic,140,active,2021/08/05 15:08:07+00,18,0,3,1,0,Yes,Yes,Yes,Yes,https://dc.lft.to/lastmile_qr_scan,https://dc.lft.to/lastmile_qr_scan,No,No,21,"KEY,CREDITCARD",41,2021/08/05 11:19:31+00,,"Arlington, VA"
-77.0415412960365,38.8996877864017,13339855,38.89968,-77.041539,18th St & Pennsylvania Ave NW,classic,141,active,2021/08/05 14:45:40+00,17,0,10,0,0,Yes,Yes,Yes,Yes,https://dc.lft.to/lastmile_qr_scan,https://dc.lft.to/lastmile_qr_scan,No,No,27,"KEY,CREDITCARD",42,2021/08/05 11:19:31+00,,"Washington, DC"
-77.0177032884794,38.8863797850666,13339856,38.886372,-77.017701,4th & C St SW,classic,142,active,2021/08/05 15:16:03+00,2,0,34,0,3,Yes,Yes,Yes,Yes,https://dc.lft.to/lastmile_qr_scan,https://dc.lft.to/lastmile_qr_scan,No,No,39,"KEY,CREDITCARD",42,2021/08/05 11:19:31+00,,"Washington, DC"
-77.0174472882507,38.8841277843572,13339857,38.88412,-77.017445,4th & E St SW,classic,143,active,2021/08/05 13:32:38+00,16,0,3,0,0,Yes,Yes,Yes,Yes,https://dc.lft.to/lastmile_qr_scan,https://dc.lft.to/lastmile_qr_scan,No,No,19,"KEY,CREDITCARD",42,2021/08/05 11:19:31+00,,"Washington, DC"
-77.0018302828677,38.8811927840088,13339858,38.881185,-77.001828,3rd & G St SE,classic,144,active,2021/08/05 14:42:44+00,13,0,5,0,1,Yes,Yes,Yes,Yes,https://dc.lft.to/lastmile_qr_scan,https://dc.lft.to/lastmile_qr_scan,No,No,19,"KEY,CREDITCARD",42,2021/08/05 11:19:31+00,,"Washington, DC"
-77.0221572907069,38.912726789722,13339859,38.912719,-77.022155,7th & R St NW / Shaw Library,classic,145,active,2021/08/05 15:04:32+00,8,0,6,0,0,Yes,Yes,Yes,Yes,https://dc.lft.to/lastmile_qr_scan,https://dc.lft.to/lastmile_qr_scan,No,No,15,"KEY,CREDITCARD",42,2021/08/05 11:19:31+00,,"Washington, DC"
-77.0251022944229,38.9418077958499,13339860,38.9418,-77.0251,9th & Upshur St NW,classic,146,active,2021/08/05 14:22:06+00,4,0,9,0,2,Yes,Yes,Yes,Yes,https://dc.lft.to/lastmile_qr_scan,https://dc.lft.to/lastmile_qr_scan,No,No,15,"KEY,CREDITCARD",42,2021/08/05 11:19:31+00,,"Washington, DC"
-77.0122912887127,38.9154247909643,13339861,38.915417,-77.012289,1st & Rhode Island Ave NW,classic,147,active,2021/08/05 14:52:47+00,13,0,1,0,1,Yes,Yes,Yes,Yes,https://dc.lft.to/lastmile_qr_scan,https://dc.lft.to/lastmile_qr_scan,No,No,15,"KEY,CREDITCARD",42,2021/08/05 11:19:31+00,,"Washington, DC"
-77.0237972932022,38.9281287930607,13339862,38.928121,-77.023795,Columbia Rd & Georgia Ave NW,classic,148,active,2021/08/05 14:15:54+00,18,0,1,0,0,Yes,Yes,Yes,Yes,https://dc.lft.to/lastmile_qr_scan,https://dc.lft.to/lastmile_qr_scan,No,No,19,"KEY,CREDITCARD",42,2021/08/05 11:19:31+00,,"Washington, DC"
-77.0406222975905,38.9177687906994,13339863,38.917761,-77.04062,California St & Florida Ave NW,classic,149,active,2021/08/05 14:18:34+00,17,0,2,1,0,Yes,Yes,Yes,Yes,https://dc.lft.to/lastmile_qr_scan,https://dc.lft.to/lastmile_qr_scan,No,No,19,"KEY,CREDITCARD",42,2021/08/05 11:19:31+00,,"Washington, DC"
-76.937232263507,38.8899427882048,13339864,38.889935,-76.93723,Benning Rd & East Capitol St NE / Benning Rd Metro,classic,150,active,2021/08/05 08:56:59+00,13,0,6,1,0,Yes,Yes,Yes,Yes,https://dc.lft.to/lastmile_qr_scan,https://dc.lft.to/lastmile_qr_scan,No,No,19,"KEY,CREDITCARD",42,2021/08/05 11:19:31+00,,"Washington, DC"
-77.0556013027986,38.9302897926535,13339865,38.930282,-77.055599,3000 Connecticut Ave NW / National Zoo,classic,151,active,2021/08/05 14:56:04+00,9,0,6,0,0,Yes,Yes,Yes,Yes,https://dc.lft.to/lastmile_qr_scan,https://dc.lft.to/lastmile_qr_scan,No,No,15,"KEY,CREDITCARD",42,2021/08/05 11:19:31+00,,"Washington, DC"
-76.960122271048,38.8965517893653,13339866,38.896544,-76.96012,Anacostia Ave & Benning Rd NE / River Terrace ,classic,152,active,2021/08/05 15:12:37+00,7,0,7,1,1,Yes,Yes,Yes,Yes,https://dc.lft.to/lastmile_qr_scan,https://dc.lft.to/lastmile_qr_scan,No,No,15,"KEY,CREDITCARD",42,2021/08/05 11:19:31+00,,"Washington, DC"
-77.0568893013328,38.9051337867429,13339867,38.905126,-77.056887,M St & Pennsylvania Ave NW,classic,153,active,2021/08/05 14:54:09+00,8,0,9,0,1,Yes,Yes,Yes,Yes,https://dc.lft.to/lastmile_qr_scan,https://dc.lft.to/lastmile_qr_scan,No,No,19,"KEY,CREDITCARD",42,2021/08/05 11:19:31+00,,"Washington, DC"
-76.9835712774584,38.8873277860471,13339868,38.88732,-76.983569,15th St & Massachusetts Ave SE,classic,154,active,2021/08/05 14:52:41+00,9,0,2,0,4,Yes,Yes,Yes,Yes,https://dc.lft.to/lastmile_qr_scan,https://dc.lft.to/lastmile_qr_scan,No,No,15,"KEY,CREDITCARD",42,2021/08/05 11:19:31+00,,"Washington, DC"
-76.9878252766035,38.844718777214,13339869,38.844711,-76.987823,Congress Heights Metro,classic,155,active,2021/08/05 15:10:21+00,6,0,9,0,0,Yes,Yes,Yes,Yes,https://dc.lft.to/lastmile_qr_scan,https://dc.lft.to/lastmile_qr_scan,No,No,15,"KEY,CREDITCARD",42,2021/08/05 11:19:31+00,,"Washington, DC"
-77.1077373159159,38.8764007789978,13339870,38.876393,-77.107735,N Quincy St & Glebe Rd,classic,156,active,2021/08/05 12:11:56+00,4,0,7,0,0,Yes,Yes,Yes,Yes,https://dc.lft.to/lastmile_qr_scan,https://dc.lft.to/lastmile_qr_scan,No,No,11,"KEY,CREDITCARD",41,2021/08/05 11:19:31+00,,"Arlington, VA"
-77.1009913124915,38.8503447742688,13339871,38.850337,-77.100989,Barcroft Community Center,classic,157,active,2021/08/05 12:30:06+00,4,0,7,0,0,Yes,Yes,Yes,Yes,https://dc.lft.to/lastmile_qr_scan,https://dc.lft.to/lastmile_qr_scan,No,No,11,"KEY,CREDITCARD",41,2021/08/05 11:19:31+00,,"Arlington, VA"
-77.0865043099915,38.8969307842355,13339872,38.896923,-77.086502,N Veitch St & 20th St N,classic,158,active,2021/08/05 14:50:34+00,14,0,0,0,1,Yes,Yes,Yes,Yes,https://dc.lft.to/lastmile_qr_scan,https://dc.lft.to/lastmile_qr_scan,No,No,15,"KEY,CREDITCARD",41,2021/08/05 11:19:31+00,,"Arlington, VA"
-77.0262222920751,38.9024077876791,13339873,38.9024,-77.02622,10th & K St NW,classic,159,active,2021/08/05 14:47:51+00,17,0,6,0,0,Yes,Yes,Yes,Yes,https://dc.lft.to/lastmile_qr_scan,https://dc.lft.to/lastmile_qr_scan,No,No,23,"KEY,CREDITCARD",42,2021/08/05 11:19:31+00,,"Washington, DC"
-77.0977473129121,38.8858087818207,13339874,38.885801,-77.097745,Fairfax Dr & Wilson Blvd,classic,160,active,2021/08/05 14:12:11+00,6,0,5,0,0,Yes,Yes,Yes,Yes,https://dc.lft.to/lastmile_qr_scan,https://dc.lft.to/lastmile_qr_scan,No,No,11,"KEY,CREDITCARD",41,2021/08/05 11:19:31+00,,"Arlington, VA"
-77.0785723072766,38.8940007840597,13339875,38.893993,-77.07857,Wilson Blvd & N Quinn St,classic,161,active,2021/08/05 12:47:05+00,6,0,5,0,0,Yes,Yes,Yes,Yes,https://dc.lft.to/lastmile_qr_scan,https://dc.lft.to/lastmile_qr_scan,No,No,11,"KEY,CREDITCARD",41,2021/08/05 11:19:31+00,,"Arlington, VA"
-77.0057292843119,38.8788617840736,13339876,38.878854,-77.005727,1st & K St SE,classic,162,active,2021/08/05 15:01:52+00,11,0,2,1,2,Yes,Yes,Yes,Yes,https://dc.lft.to/lastmile_qr_scan,https://dc.lft.to/lastmile_qr_scan,No,No,15,"KEY,CREDITCARD",42,2021/08/05 11:19:31+00,,"Washington, DC"
-77.0772733088853,38.9226567900179,13339877,38.922649,-77.077271,39th & Calvert St NW / Stoddert,classic,163,active,2021/08/05 11:53:27+00,19,0,0,0,0,Yes,Yes,Yes,Yes,https://dc.lft.to/lastmile_qr_scan,https://dc.lft.to/lastmile_qr_scan,No,No,19,"KEY,CREDITCARD",42,2021/08/05 11:19:31+00,,"Washington, DC"
-77.0124592889084,38.9287507932412,13339878,38.928743,-77.012457,1st & Washington Hospital Center NW,classic,164,active,2021/08/05 14:48:46+00,13,0,2,0,0,Yes,Yes,Yes,Yes,https://dc.lft.to/lastmile_qr_scan,https://dc.lft.to/lastmile_qr_scan,No,No,15,"KEY,CREDITCARD",42,2021/08/05 11:19:31+00,,"Washington, DC"
-77.1031503141368,38.8827957811318,13339879,38.882788,-77.103148,Virginia Square Metro / Monroe St & 9th St N,classic,165,active,2021/08/05 11:39:53+00,2,0,16,0,1,Yes,Yes,Yes,Yes,https://dc.lft.to/lastmile_qr_scan,https://dc.lft.to/lastmile_qr_scan,No,No,19,"KEY,CREDITCARD",41,2021/08/05 11:19:31+00,,"Arlington, VA"
-77.1078323166916,38.8839777809873,13339880,38.88397,-77.10783,Central Library / Quincy St & 10th St N,classic,166,active,2021/08/05 14:52:18+00,6,0,4,0,1,Yes,Yes,Yes,Yes,https://dc.lft.to/lastmile_qr_scan,https://dc.lft.to/lastmile_qr_scan,No,No,11,"KEY,CREDITCARD",41,2021/08/05 11:19:31+00,,"Arlington, VA"
-77.0934873117469,38.8847417817777,13339881,38.884734,-77.093485,Washington Blvd & 10th St N,classic,167,active,2021/08/05 15:02:02+00,14,0,1,1,0,Yes,Yes,Yes,Yes,https://dc.lft.to/lastmile_qr_scan,https://dc.lft.to/lastmile_qr_scan,No,No,15,"KEY,CREDITCARD",41,2021/08/05 11:19:31+00,,"Arlington, VA"
-77.0324292927537,38.8885607848268,13339882,38.888553,-77.032427,Jefferson Dr & 14th St SW,classic,168,active,2021/08/05 15:02:51+00,9,0,12,0,2,Yes,Yes,Yes,Yes,https://dc.lft.to/lastmile_qr_scan,https://dc.lft.to/lastmile_qr_scan,No,No,23,"KEY,CREDITCARD",42,2021/08/05 11:19:31+00,,"Washington, DC"
-77.0286962916303,38.8887817850049,13339883,38.888774,-77.028694,Smithsonian-National Mall / Jefferson Dr & 12th St SW,classic,169,active,2021/08/05 15:03:18+00,30,0,5,0,0,Yes,Yes,Yes,Yes,https://dc.lft.to/lastmile_qr_scan,https://dc.lft.to/lastmile_qr_scan,No,No,35,"KEY,CREDITCARD",42,2021/08/05 11:19:31+00,,"Washington, DC"
-77.1207023195509,38.8788777798307,13339884,38.87887,-77.1207,George Mason Dr & Wilson Blvd,classic,170,active,2021/08/05 14:41:28+00,6,0,9,0,0,Yes,Yes,Yes,Yes,https://dc.lft.to/lastmile_qr_scan,https://dc.lft.to/lastmile_qr_scan,No,No,15,"KEY,CREDITCARD",41,2021/08/05 11:19:31+00,,"Arlington, VA"
-77.0199422889685,38.8945807864038,13339885,38.894573,-77.01994,6th St & Indiana Ave NW,classic,171,active,2021/08/05 14:28:37+00,6,0,11,0,2,Yes,Yes,Yes,Yes,https://dc.lft.to/lastmile_qr_scan,https://dc.lft.to/lastmile_qr_scan,No,No,19,"KEY,CREDITCARD",42,2021/08/05 11:19:31+00,,"Washington, DC"
-77.0860653099626,38.8932447835071,13339886,38.893237,-77.086063,N Veitch St & Key Blvd,classic,172,active,2021/08/05 12:53:15+00,10,0,1,0,0,Yes,Yes,Yes,Yes,https://dc.lft.to/lastmile_qr_scan,https://dc.lft.to/lastmile_qr_scan,No,No,11,"KEY,CREDITCARD",41,2021/08/05 11:19:31+00,,"Arlington, VA"
-77.0890083109319,38.8959377842234,13339887,38.89593,-77.089006,Langston Blvd & N Adams St,classic,173,active,2021/08/05 14:06:00+00,14,0,4,0,1,Yes,Yes,Yes,Yes,https://dc.lft.to/lastmile_qr_scan,https://dc.lft.to/lastmile_qr_scan,No,No,19,"KEY,CREDITCARD",41,2021/08/05 11:19:31+00,,"Arlington, VA"
-77.0809523077598,38.8905477833408,13339888,38.89054,-77.08095,15th St & N Scott St,classic,174,active,2021/08/05 12:59:51+00,11,0,0,0,0,Yes,Yes,Yes,Yes,https://dc.lft.to/lastmile_qr_scan,https://dc.lft.to/lastmile_qr_scan,No,No,11,"KEY,CREDITCARD",41,2021/08/05 11:19:31+00,,"Arlington, VA"
-77.0907943103868,38.8808177805614,13339889,38.88081,-77.090792,Washington Blvd & 7th St N,classic,175,active,2021/08/05 11:52:59+00,9,0,2,0,0,Yes,Yes,Yes,Yes,https://dc.lft.to/lastmile_qr_scan,https://dc.lft.to/lastmile_qr_scan,No,No,11,"KEY,CREDITCARD",41,2021/08/05 11:19:31+00,,"Arlington, VA"
-77.1117703173973,38.8810517798341,13339890,38.881044,-77.111768,Ballston Metro / Stuart St & 9th St N,classic,176,active,2021/08/05 15:00:27+00,20,0,3,0,0,Yes,Yes,Yes,Yes,https://dc.lft.to/lastmile_qr_scan,https://dc.lft.to/lastmile_qr_scan,No,No,23,"KEY,CREDITCARD",41,2021/08/05 11:19:31+00,,"Arlington, VA"
-77.1093683163688,38.8826367803511,13339891,38.882629,-77.109366,Fairfax Dr & N Randolph St,classic,177,active,2021/08/05 12:45:08+00,1,0,10,0,0,Yes,Yes,Yes,Yes,https://dc.lft.to/lastmile_qr_scan,https://dc.lft.to/lastmile_qr_scan,No,No,11,"KEY,CREDITCARD",41,2021/08/05 11:19:31+00,,"Arlington, VA"
-77.0374152934161,38.8798267824459,13339892,38.879819,-77.037413,Jefferson Memorial,classic,178,active,2021/08/05 15:15:33+00,16,0,7,0,0,Yes,Yes,Yes,Yes,https://dc.lft.to/lastmile_qr_scan,https://dc.lft.to/lastmile_qr_scan,No,No,23,"KEY,CREDITCARD",42,2021/08/05 11:19:31+00,,"Washington, DC"
-76.9852402767037,38.866618782038,13339893,38.866611,-76.985238,Good Hope Rd & 14th St SE,classic,179,active,2021/08/05 08:36:18+00,3,0,11,0,1,Yes,Yes,Yes,Yes,https://dc.lft.to/lastmile_qr_scan,https://dc.lft.to/lastmile_qr_scan,No,No,15,"KEY,CREDITCARD",42,2021/08/05 11:19:31+00,,"Washington, DC"
-77.1168193187618,38.8839287802823,13339894,38.883921,-77.116817,Glebe Rd & 11th St N,classic,180,active,2021/08/05 15:11:02+00,6,0,4,0,1,Yes,Yes,Yes,Yes,https://dc.lft.to/lastmile_qr_scan,https://dc.lft.to/lastmile_qr_scan,No,No,11,"KEY,CREDITCARD",41,2021/08/05 11:19:31+00,,"Arlington, VA"
-77.1078563162663,38.8800197798752,13339895,38.880012,-77.107854,Wilson Blvd & N Quincy St,classic,181,active,2021/08/05 11:29:20+00,10,0,5,0,0,Yes,Yes,Yes,Yes,https://dc.lft.to/lastmile_qr_scan,https://dc.lft.to/lastmile_qr_scan,No,No,15,"KEY,CREDITCARD",41,2021/08/05 11:19:31+00,,"Arlington, VA"
-77.101082314416,38.8846237812405,13339896,38.884616,-77.10108,GMU / Fairfax Dr & Kenmore St,classic,182,active,2021/08/05 14:56:15+00,6,0,5,0,0,Yes,Yes,Yes,Yes,https://dc.lft.to/lastmile_qr_scan,https://dc.lft.to/lastmile_qr_scan,No,No,11,"KEY,CREDITCARD",41,2021/08/05 11:19:31+00,,"Arlington, VA"
-76.9941022818194,38.9050977895929,13339897,38.90509,-76.9941,Gallaudet / 8th St & Florida Ave NE,classic,183,active,2021/08/05 15:05:22+00,17,0,2,0,0,Yes,Yes,Yes,Yes,https://dc.lft.to/lastmile_qr_scan,https://dc.lft.to/lastmile_qr_scan,No,No,19,"KEY,CREDITCARD",42,2021/08/05 11:19:31+00,,"Washington, DC"
-77.0447912976801,38.9035917873476,13339898,38.903584,-77.044789,20th & L St NW,classic,185,active,2021/08/05 15:11:19+00,7,0,12,1,0,Yes,Yes,Yes,Yes,https://dc.lft.to/lastmile_qr_scan,https://dc.lft.to/lastmile_qr_scan,No,No,19,"KEY,CREDITCARD",42,2021/08/05 11:19:31+00,,"Washington, DC"
-77.028402292269,38.903826787659,13339899,38.903819,-77.0284,12th & L St NW,classic,186,active,2021/08/05 15:16:49+00,16,0,3,0,0,Yes,Yes,Yes,Yes,https://dc.lft.to/lastmile_qr_scan,https://dc.lft.to/lastmile_qr_scan,No,No,19,"KEY,CREDITCARD",42,2021/08/05 11:19:31+00,,"Washington, DC"
-77.0465662981341,38.9015467871553,13339900,38.901539,-77.046564,21st St & Pennsylvania Ave NW,classic,187,active,2021/08/05 14:58:38+00,11,0,7,1,1,Yes,Yes,Yes,Yes,https://dc.lft.to/lastmile_qr_scan,https://dc.lft.to/lastmile_qr_scan,No,No,19,"KEY,CREDITCARD",42,2021/08/05 11:19:31+00,,"Washington, DC"
-77.0433722967649,38.9022117867285,13339901,38.902204,-77.04337,19th & K St NW,classic,188,active,2021/08/05 15:08:52+00,10,0,12,0,1,Yes,Yes,Yes,Yes,https://dc.lft.to/lastmile_qr_scan,https://dc.lft.to/lastmile_qr_scan,No,No,23,"KEY,CREDITCARD",42,2021/08/05 11:19:31+00,,"Washington, DC"
-77.0403652899703,38.8031317672634,13339902,38.803124,-77.040363,Prince St & Union St,classic,189,active,2021/08/05 15:02:13+00,17,0,2,0,0,Yes,Yes,Yes,Yes,https://dc.lft.to/lastmile_qr_scan,https://dc.lft.to/lastmile_qr_scan,No,No,19,"KEY,CREDITCARD",40,2021/08/05 11:19:31+00,,"Alexandria, VA"
-77.0433652907578,38.8047257669309,13339903,38.804718,-77.043363,Market Square / King St & Royal St,classic,190,active,2021/08/05 15:01:25+00,6,0,9,0,0,Yes,Yes,Yes,Yes,https://dc.lft.to/lastmile_qr_scan,https://dc.lft.to/lastmile_qr_scan,No,No,15,"KEY,CREDITCARD",40,2021/08/05 11:19:31+00,,"Alexandria, VA"
-77.0446352920662,38.8107487682338,13339904,38.810741,-77.044633,St Asaph & Pendleton St,classic,191,active,2021/08/05 08:06:13+00,9,1,5,0,0,Yes,Yes,Yes,Yes,https://dc.lft.to/lastmile_qr_scan,https://dc.lft.to/lastmile_qr_scan,No,No,15,"KEY,CREDITCARD",40,2021/08/05 11:19:31+00,,"Alexandria, VA"
-77.049885293762,38.8053247669313,13339905,38.805317,-77.049883,King St & Patrick St,classic,192,active,2021/08/05 15:04:42+00,4,0,11,0,0,Yes,Yes,Yes,Yes,https://dc.lft.to/lastmile_qr_scan,https://dc.lft.to/lastmile_qr_scan,No,No,15,"KEY,CREDITCARD",40,2021/08/05 11:19:31+00,,"Alexandria, VA"
-77.0335322944143,38.9020077874485,13339906,38.902,-77.03353,15th & K St NW,classic,193,active,2021/08/05 15:13:36+00,20,0,7,1,0,Yes,Yes,Yes,Yes,https://dc.lft.to/lastmile_qr_scan,https://dc.lft.to/lastmile_qr_scan,No,No,27,"KEY,CREDITCARD",42,2021/08/05 11:19:31+00,,"Washington, DC"
-77.0529322944343,38.805655766791,13339907,38.805648,-77.05293,Commerce St & Fayette St,classic,194,active,2021/08/05 08:41:19+00,10,0,5,0,0,Yes,Yes,Yes,Yes,https://dc.lft.to/lastmile_qr_scan,https://dc.lft.to/lastmile_qr_scan,No,No,15,"KEY,CREDITCARD",40,2021/08/05 11:19:31+00,,"Alexandria, VA"
-77.0502782934314,38.8114637688526,13339908,38.811456,-77.050276,Henry St & Pendleton St,classic,195,active,2021/08/05 08:41:19+00,15,0,2,0,0,Yes,Yes,Yes,Yes,https://dc.lft.to/lastmile_qr_scan,https://dc.lft.to/lastmile_qr_scan,No,No,17,"KEY,CREDITCARD",40,2021/08/05 11:19:31+00,,"Alexandria, VA"
-77.0528102951263,38.8145847691796,13339909,38.814577,-77.052808,Braddock Rd Metro,classic,196,active,2021/08/05 15:15:06+00,22,0,7,0,0,Yes,Yes,Yes,Yes,https://dc.lft.to/lastmile_qr_scan,https://dc.lft.to/lastmile_qr_scan,No,No,29,"KEY,CREDITCARD",40,2021/08/05 11:19:31+00,,"Alexandria, VA"
-77.0606292966738,38.80577076709,13339910,38.805763,-77.060627,King St Metro South,classic,197,active,2021/08/05 14:36:59+00,2,0,21,0,0,Yes,Yes,Yes,Yes,https://dc.lft.to/lastmile_qr_scan,https://dc.lft.to/lastmile_qr_scan,No,No,23,"KEY,CREDITCARD",40,2021/08/05 11:19:31+00,,"Alexandria, VA"
-77.0515223001038,38.9066077876522,13339911,38.9066,-77.05152,24th & N St NW,classic,198,active,2021/08/05 15:13:23+00,10,0,5,0,0,Yes,Yes,Yes,Yes,https://dc.lft.to/lastmile_qr_scan,https://dc.lft.to/lastmile_qr_scan,No,No,15,"KEY,CREDITCARD",42,2021/08/05 11:19:31+00,,"Washington, DC"
-77.0260662918465,38.8959217866369,13339912,38.895914,-77.026064,10th & E St NW,classic,199,active,2021/08/05 14:48:23+00,8,0,5,0,2,Yes,Yes,Yes,Yes,https://dc.lft.to/lastmile_qr_scan,https://dc.lft.to/lastmile_qr_scan,No,No,15,"KEY,CREDITCARD",42,2021/08/05 11:19:31+00,,"Washington, DC"
-77.0489132985319,38.9008877862861,13339913,38.90088,-77.048911,22nd & I St NW / Foggy Bottom,classic,200,active,2021/08/05 15:16:22+00,1,0,12,0,2,Yes,Yes,Yes,Yes,https://dc.lft.to/lastmile_qr_scan,https://dc.lft.to/lastmile_qr_scan,No,No,15,"KEY,CREDITCARD",42,2021/08/05 11:19:31+00,,"Washington, DC"
-77.113907317426,38.8836767803185,13339914,38.883669,-77.113905,Utah St & 11th St N,classic,201,active,2021/08/05 14:43:52+00,11,0,0,0,0,Yes,Yes,Yes,Yes,https://dc.lft.to/lastmile_qr_scan,https://dc.lft.to/lastmile_qr_scan,No,No,11,"KEY,CREDITCARD",41,2021/08/05 11:19:31+00,,"Arlington, VA"
-77.0877723095341,38.8849687821851,13339915,38.884961,-77.08777,Barton St & 10th St N,classic,202,active,2021/08/05 11:20:57+00,9,0,2,0,0,Yes,Yes,Yes,Yes,https://dc.lft.to/lastmile_qr_scan,https://dc.lft.to/lastmile_qr_scan,No,No,11,"KEY,CREDITCARD",41,2021/08/05 11:19:31+00,,"Arlington, VA"
-77.0772963073368,38.8893727827437,13339916,38.889365,-77.077294,Arlington Blvd & N Queen St,classic,203,active,2021/08/05 13:54:47+00,5,0,5,0,0,Yes,Yes,Yes,Yes,https://dc.lft.to/lastmile_qr_scan,https://dc.lft.to/lastmile_qr_scan,No,No,11,"KEY,CREDITCARD",41,2021/08/05 11:19:31+00,,"Arlington, VA"
-77.0494392982981,38.8882627842958,13339917,38.888255,-77.049437,Lincoln Memorial,classic,204,active,2021/08/05 15:03:47+00,19,0,0,0,5,Yes,Yes,Yes,Yes,https://dc.lft.to/lastmile_qr_scan,https://dc.lft.to/lastmile_qr_scan,No,No,25,"KEY,CREDITCARD",42,2021/08/05 11:19:31+00,,"Washington, DC"
-77.0451302972176,38.8947297854359,13339918,38.894722,-77.045128,20th St & Virginia Ave NW,classic,206,active,2021/08/05 15:13:23+00,8,0,7,0,0,Yes,Yes,Yes,Yes,https://dc.lft.to/lastmile_qr_scan,https://dc.lft.to/lastmile_qr_scan,No,No,15,"KEY,CREDITCARD",42,2021/08/05 11:19:31+00,,"Washington, DC"
-77.0186792890832,38.900937787868,13339919,38.90093,-77.018677,5th St & Massachusetts Ave NW,classic,207,active,2021/08/05 15:04:46+00,13,0,3,0,2,Yes,Yes,Yes,Yes,https://dc.lft.to/lastmile_qr_scan,https://dc.lft.to/lastmile_qr_scan,No,No,19,"KEY,CREDITCARD",42,2021/08/05 11:19:31+00,,"Washington, DC"
-77.0770803096884,38.9438447945801,13339920,38.943837,-77.077078,39th & Veazey St NW,classic,208,active,2021/08/05 15:12:15+00,15,0,0,0,0,Yes,Yes,Yes,Yes,https://dc.lft.to/lastmile_qr_scan,https://dc.lft.to/lastmile_qr_scan,No,No,15,"KEY,CREDITCARD",42,2021/08/05 11:19:31+00,,"Washington, DC"
-77.0824283122384,38.9548197963542,13339921,38.954812,-77.082426,Fessenden St & Wisconsin Ave NW,classic,209,active,2021/08/05 14:49:41+00,9,0,6,0,0,Yes,Yes,Yes,Yes,https://dc.lft.to/lastmile_qr_scan,https://dc.lft.to/lastmile_qr_scan,No,No,15,"KEY,CREDITCARD",42,2021/08/05 11:19:31+00,,"Washington, DC"
-77.0021322849506,38.905477789333,13339922,38.90547,-77.00213,3rd & M St NE,classic,210,active,2021/08/05 14:54:34+00,4,0,15,0,3,Yes,Yes,Yes,Yes,https://dc.lft.to/lastmile_qr_scan,https://dc.lft.to/lastmile_qr_scan,No,No,23,"KEY,CREDITCARD",42,2021/08/05 11:19:31+00,,"Washington, DC"
-77.0803213068754,38.8638407783084,13339923,38.863833,-77.080319,Columbia Pike & S Courthouse Rd,classic,211,active,2021/08/05 15:09:10+00,9,0,6,0,0,Yes,Yes,Yes,Yes,https://dc.lft.to/lastmile_qr_scan,https://dc.lft.to/lastmile_qr_scan,No,No,15,"KEY,CREDITCARD",41,2021/08/05 11:19:31+00,,"Arlington, VA"
-77.112552315214,38.847136773095,13339924,38.847129,-77.11255,Wakefield High School,classic,212,active,2021/08/05 14:45:40+00,5,0,6,0,0,Yes,Yes,Yes,Yes,https://dc.lft.to/lastmile_qr_scan,https://dc.lft.to/lastmile_qr_scan,No,No,11,"KEY,CREDITCARD",41,2021/08/05 11:19:31+00,,"Arlington, VA"
-77.0692773023798,38.8462297751833,13339925,38.846222,-77.069275,28th St & S Meade St,classic,213,active,2021/08/05 12:11:59+00,6,0,9,0,0,Yes,Yes,Yes,Yes,https://dc.lft.to/lastmile_qr_scan,https://dc.lft.to/lastmile_qr_scan,No,No,15,"KEY,CREDITCARD",41,2021/08/05 11:19:31+00,,"Arlington, VA"
-77.0415732980645,38.9188167908523,13339926,38.918809,-77.041571,18th St & Wyoming Ave NW,classic,214,active,2021/08/05 15:01:56+00,20,0,1,1,1,Yes,Yes,Yes,Yes,https://dc.lft.to/lastmile_qr_scan,https://dc.lft.to/lastmile_qr_scan,No,No,23,"KEY,CREDITCARD",42,2021/08/05 11:19:31+00,,"Washington, DC"
-77.0198162925907,38.9565637985803,13339927,38.956556,-77.019814,5th & Kennedy St NW,classic,215,active,2021/08/05 08:46:23+00,6,0,7,0,1,Yes,Yes,Yes,Yes,https://dc.lft.to/lastmile_qr_scan,https://dc.lft.to/lastmile_qr_scan,No,No,15,"KEY,CREDITCARD",42,2021/08/05 11:19:31+00,,"Washington, DC"
-77.0273352953024,38.9496697973156,13339928,38.949662,-77.027333,Georgia Ave & Emerson St NW,classic,216,active,2021/08/05 12:33:28+00,10,0,8,0,1,Yes,Yes,Yes,Yes,https://dc.lft.to/lastmile_qr_scan,https://dc.lft.to/lastmile_qr_scan,No,No,19,"KEY,CREDITCARD",42,2021/08/05 11:19:31+00,,"Washington, DC"
-77.032680296076,38.9424827957743,13339929,38.942475,-77.032678,14th & Upshur St NW,classic,217,active,2021/08/05 13:22:03+00,3,0,13,0,3,Yes,Yes,Yes,Yes,https://dc.lft.to/lastmile_qr_scan,https://dc.lft.to/lastmile_qr_scan,No,No,19,"KEY,CREDITCARD",42,2021/08/05 11:19:31+00,,"Washington, DC"
-77.0329492967149,38.9564397979982,13339930,38.956432,-77.032947,14th St & Colorado Ave NW,classic,218,active,2021/08/05 15:09:56+00,19,0,0,0,0,Yes,Yes,Yes,Yes,https://dc.lft.to/lastmile_qr_scan,https://dc.lft.to/lastmile_qr_scan,No,No,19,"KEY,CREDITCARD",42,2021/08/05 11:19:31+00,,"Washington, DC"
-77.0751063038947,38.8479847745557,13339931,38.847977,-77.075104,Troy St & 26th St S,classic,219,active,2021/08/05 08:46:23+00,7,0,4,0,0,Yes,Yes,Yes,Yes,https://dc.lft.to/lastmile_qr_scan,https://dc.lft.to/lastmile_qr_scan,No,No,11,"KEY,CREDITCARD",41,2021/08/05 11:19:31+00,,"Arlington, VA"
-77.0859333065172,38.8444077741304,13339932,38.8444,-77.085931,Four Mile Run Dr & S Shirlington Rd,classic,220,active,2021/08/05 14:09:49+00,3,0,8,0,0,Yes,Yes,Yes,Yes,https://dc.lft.to/lastmile_qr_scan,https://dc.lft.to/lastmile_qr_scan,No,No,11,"KEY,CREDITCARD",41,2021/08/05 11:19:31+00,,"Arlington, VA"
-77.0958623105624,38.8607967771281,13339933,38.860789,-77.09586,Columbia Pike & S Oakland St,classic,221,active,2021/08/05 08:46:25+00,8,0,3,0,0,Yes,Yes,Yes,Yes,https://dc.lft.to/lastmile_qr_scan,https://dc.lft.to/lastmile_qr_scan,No,No,11,"KEY,CREDITCARD",41,2021/08/05 11:19:31+00,,"Arlington, VA"
-77.0954333095195,38.8473677741026,13339934,38.84736,-77.095431,Four Mile Run Dr & S Walter Reed Dr,classic,222,active,2021/08/05 14:36:25+00,9,0,1,0,1,Yes,Yes,Yes,Yes,https://dc.lft.to/lastmile_qr_scan,https://dc.lft.to/lastmile_qr_scan,No,No,11,"KEY,CREDITCARD",41,2021/08/05 11:19:31+00,,"Arlington, VA"
-77.0895573081055,38.8423277730947,13339935,38.84232,-77.089555,S Arlington Mill Dr & Campbell Ave,classic,223,active,2021/08/05 13:37:06+00,4,0,11,0,0,Yes,Yes,Yes,Yes,https://dc.lft.to/lastmile_qr_scan,https://dc.lft.to/lastmile_qr_scan,No,No,15,"KEY,CREDITCARD",41,2021/08/05 11:19:31+00,,"Arlington, VA"
-77.0849203064866,38.8484617750785,13339936,38.848454,-77.084918,Kenmore St & 24th St S,classic,224,active,2021/08/05 14:57:54+00,3,0,7,1,1,Yes,Yes,Yes,Yes,https://dc.lft.to/lastmile_qr_scan,https://dc.lft.to/lastmile_qr_scan,No,No,11,"KEY,CREDITCARD",41,2021/08/05 11:19:31+00,,"Arlington, VA"
-77.0294192982329,38.9870078049018,13339937,38.987,-77.029417,13th St & Eastern Ave,classic,225,active,2021/08/05 08:06:13+00,13,0,2,0,0,Yes,Yes,Yes,Yes,https://dc.lft.to/lastmile_qr_scan,https://dc.lft.to/lastmile_qr_scan,No,No,15,"KEY,CREDITCARD",44,2021/08/05 11:19:31+00,,"Montgomery County, MD (South)"
-77.0635883041224,38.9084977877015,13339938,38.90849,-77.063586,Wisconsin Ave & O St NW,classic,226,active,2021/08/05 14:13:44+00,13,0,6,0,0,Yes,Yes,Yes,Yes,https://dc.lft.to/lastmile_qr_scan,https://dc.lft.to/lastmile_qr_scan,No,No,19,"KEY,CREDITCARD",42,2021/08/05 11:19:31+00,,"Washington, DC"
-77.0671423045089,38.896560785351,13339939,38.896553,-77.06714,Roosevelt Island,classic,227,active,2021/08/05 15:08:51+00,1,0,15,0,1,Yes,Yes,Yes,Yes,https://dc.lft.to/lastmile_qr_scan,https://dc.lft.to/lastmile_qr_scan,No,No,17,"KEY,CREDITCARD",41,2021/08/05 11:19:31+00,,"Arlington, VA"
-77.0699583085248,38.9550237963852,13339940,38.955016,-77.069956,Connecticut & Nebraska Ave NW,classic,228,active,2021/08/05 14:33:58+00,21,0,1,0,1,Yes,Yes,Yes,Yes,https://dc.lft.to/lastmile_qr_scan,https://dc.lft.to/lastmile_qr_scan,No,No,23,"KEY,CREDITCARD",42,2021/08/05 11:19:31+00,,"Washington, DC"
-77.0383612956956,38.9081497882709,13339941,38.908142,-77.038359,17th St & Massachusetts Ave NW,classic,229,active,2021/08/05 15:00:44+00,15,0,3,2,1,Yes,Yes,Yes,Yes,https://dc.lft.to/lastmile_qr_scan,https://dc.lft.to/lastmile_qr_scan,No,No,19,"KEY,CREDITCARD",42,2021/08/05 11:19:31+00,,"Washington, DC"
-77.0352022964905,38.9233377918872,13339942,38.92333,-77.0352,15th & Euclid St  NW,classic,230,active,2021/08/05 13:38:53+00,13,0,1,0,1,Yes,Yes,Yes,Yes,https://dc.lft.to/lastmile_qr_scan,https://dc.lft.to/lastmile_qr_scan,No,No,15,"KEY,CREDITCARD",42,2021/08/05 11:19:31+00,,"Washington, DC"
-76.9951952812152,38.8899957863414,13339943,38.889988,-76.995193,8th & East Capitol St NE,classic,231,active,2021/08/05 14:51:22+00,10,0,1,0,0,Yes,Yes,Yes,Yes,https://dc.lft.to/lastmile_qr_scan,https://dc.lft.to/lastmile_qr_scan,No,No,11,"KEY,CREDITCARD",42,2021/08/05 11:19:31+00,,"Washington, DC"
-77.0176712892605,38.9126667904117,13339944,38.912659,-77.017669,New Jersey Ave & R St NW,classic,232,active,2021/08/05 15:09:40+00,11,0,3,0,1,Yes,Yes,Yes,Yes,https://dc.lft.to/lastmile_qr_scan,https://dc.lft.to/lastmile_qr_scan,No,No,15,"KEY,CREDITCARD",42,2021/08/05 11:19:31+00,,"Washington, DC"
-76.9833282779085,38.8899157867312,13339945,38.889908,-76.983326,15th & East Capitol St NE,classic,233,active,2021/08/05 12:57:11+00,9,0,2,0,0,Yes,Yes,Yes,Yes,https://dc.lft.to/lastmile_qr_scan,https://dc.lft.to/lastmile_qr_scan,No,No,11,"KEY,CREDITCARD",42,2021/08/05 11:19:31+00,,"Washington, DC"
-76.9947512821935,38.8972817877571,13339946,38.897274,-76.994749,8th & F St NE,classic,234,active,2021/08/05 14:20:46+00,16,0,6,0,1,Yes,Yes,Yes,Yes,https://dc.lft.to/lastmile_qr_scan,https://dc.lft.to/lastmile_qr_scan,No,No,23,"KEY,CREDITCARD",42,2021/08/05 11:19:31+00,,"Washington, DC"
-76.9789262782291,38.9271027948888,13339947,38.927095,-76.978924,18th St & Rhode Island Ave NE,classic,235,active,2021/08/05 13:25:00+00,7,0,8,0,0,Yes,Yes,Yes,Yes,https://dc.lft.to/lastmile_qr_scan,https://dc.lft.to/lastmile_qr_scan,No,No,15,"KEY,CREDITCARD",42,2021/08/05 11:19:31+00,,"Washington, DC"
-76.9835772781895,38.8972027886033,13339948,38.897195,-76.983575,15th & F St NE,classic,236,active,2021/08/05 14:41:07+00,12,0,6,0,1,Yes,Yes,Yes,Yes,https://dc.lft.to/lastmile_qr_scan,https://dc.lft.to/lastmile_qr_scan,No,No,19,"KEY,CREDITCARD",42,2021/08/05 11:19:31+00,,"Washington, DC"
-76.9909572825107,38.9286517939653,13339949,38.928644,-76.990955,12th & Irving St NE,classic,237,active,2021/08/05 12:45:58+00,9,0,6,0,0,Yes,Yes,Yes,Yes,https://dc.lft.to/lastmile_qr_scan,https://dc.lft.to/lastmile_qr_scan,No,No,15,"KEY,CREDITCARD",42,2021/08/05 11:19:31+00,,"Washington, DC"
-76.9993782804382,38.8432377766539,13339950,38.84323,-76.999376,Alabama & MLK Ave SE,classic,239,active,2021/08/05 13:16:58+00,4,0,7,0,0,Yes,Yes,Yes,Yes,https://dc.lft.to/lastmile_qr_scan,https://dc.lft.to/lastmile_qr_scan,No,No,11,"KEY,CREDITCARD",42,2021/08/05 11:19:31+00,,"Washington, DC"
-76.9900392783959,38.8639047816233,13339951,38.863897,-76.990037,Pleasant St & MLK Ave SE,classic,240,active,2021/08/05 08:51:26+00,4,0,3,0,4,Yes,Yes,Yes,Yes,https://dc.lft.to/lastmile_qr_scan,https://dc.lft.to/lastmile_qr_scan,No,No,11,"KEY,CREDITCARD",42,2021/08/05 11:19:31+00,,"Washington, DC"
